stop_id,stop_code,stop_name,stop_lat,stop_lon,stop_url,location_type,parent_station,wheelchair_boarding
1.111,111,"Hospital de Bellvitge",41.344677,2.107242,,0,P.6660111,1
E.11101,,"Residència sanitària",41.344357,2.106669,,2,P.6660111,1
P.6660111,,"Hospital de Bellvitge",41.344677,2.107242,,1,,
1.112,112,"Bellvitge",41.350975,2.110917,,0,P.6660112,1
E.11201,,"Rambla de la Marina / Avda. Granvia",41.350895,2.111515,,2,P.6660112,1
E.11202,,"Rambla de la Marina / Merca 2",41.350751,2.110842,,2,P.6660112,2
E.11211,,"Rambla de la Marina / Trav. Industrial",41.35142,2.11094,,2,P.6660112,2
E.11212,,"Rambla de la Marina / Mercat Municipal",41.351237,2.110483,,2,P.6660112,2
P.6660112,,"Bellvitge",41.350975,2.110917,,1,,
1.113,113,"Av. Carrilet",41.358553,2.102632,,0,P.6660113,1
E.11301,,"Prat de la Riba",41.359401,2.102423,,2,P.6660113,2
E.11311,,"Avinguda Carrilet",41.358,2.102668,,2,P.6660113,1
P.6660113,,"Av. Carrilet",41.358553,2.102632,,1,,
1.114,114,"Rambla Just Oliveras",41.36409,2.099749,,0,P.6660114,1
E.11401,,"Avinguda Can Serra",41.364424,2.099884,,2,P.6660114,2
E.11402,,"Rambla Just Oliveras",41.363524,2.100018,,2,P.6660114,2
E.11403,,"Renfe",41.363994,2.100154,,2,P.6660114,1
P.6660114,,"Rambla Just Oliveras",41.36409,2.099749,,1,,
1.115,115,"Can Serra",41.367694,2.102758,,0,P.6660115,1
E.11501,,"Parc de les Planes",41.368062,2.103603,,2,P.6660115,2
E.11502,,"Avinguda Can Serra",41.367609,2.103393,,2,P.6660115,1
P.6660115,,"Can Serra",41.367694,2.102758,,1,,
1.116,116,"Florida",41.368316,2.110027,,0,P.6660116,1
E.11601,,"Avinguda Masnou",41.368472,2.11012,,2,P.6660116,1
E.11602,,"Blocs Florida",41.368178,2.110132,,2,P.6660116,2
P.6660116,,"Florida",41.368316,2.110027,,1,,
1.117,117,"Torrassa",41.368396,2.116594,,0,P.6660117,1
1.915,915,"Torrassa",41.368223,2.115756,,0,P.6660117,1
E.11711,,"Av. Catalunya",41.368587,2.116201,,2,P.6660117,1
E.11712,,"Rosalía de Castro",41.36809,2.116833,,2,P.6660117,2
P.6660117,,"Torrassa",41.368223,2.115756,,1,,
1.118,118,"Santa Eulàlia",41.368816,2.128617,,0,P.6660118,1
E.11801,,"Pont de la Torrassa",41.368434,2.127757,,2,P.6660118,1
E.11811,,"Riera Blanca",41.369742,2.130231,,2,P.6660118,2
P.6660118,,"Santa Eulàlia",41.368816,2.128617,,1,,
1.119,119,"Mercat Nou",41.373003,2.133536,,0,P.6660119,1
E.11901,,"Riera de Tena",41.372529,2.133236,,2,P.6660119,1
P.6660119,,"Mercat Nou",41.373003,2.133536,,1,,
1.120,120,"Plaça de Sants",41.375353,2.138154,,0,P.6660120,2
1.517,517,"Plaça de Sants",41.375727,2.135159,,0,P.6660120,2
E.12001,,"Alcolea (escala mecànica)",41.375457,2.137077,,2,P.6660120,2
E.12002,,"Alcolea",41.375433,2.137426,,2,P.6660120,2
E.12003,,"Olzinelles",41.375293,2.137156,,2,P.6660120,2
E.12011,,"Cros",41.375271,2.13856,,2,P.6660120,2
E.12012,,"Riego",41.375412,2.138559,,2,P.6660120,2
E.51701,,"Plaça de Sants",41.37565,2.135071,,2,P.6660120,2
E.51702,,"Galileu",41.375514,2.135832,,2,P.6660120,2
P.6660120,,"Plaça de Sants",41.375727,2.135159,,1,,
1.121,121,"Hostafrancs",41.375254,2.143291,,0,P.6660121,1
E.12101,,"Consell de Cent / Mercat",41.375511,2.143709,,2,P.6660121,2
E.12111,,"Hostafrancs",41.375082,2.144252,,2,P.6660121,2
E.12121,,"Moianès",41.375197,2.142275,,2,P.6660121,2
E.12131,,"Consell de Cent",41.375398,2.143251,,2,P.6660121,1
P.6660121,,"Hostafrancs",41.375254,2.143291,,1,,
1.122,122,"Espanya",41.37551,2.149382,,0,P.6660122,2
1.321,321,"Espanya",41.375018,2.151555,,0,P.6660122,2
E.12201,,"Creu Coberta",41.375268,2.148291,,2,P.6660122,2
E.12202,,"Tarragona",41.375714,2.14921,,2,P.6660122,2
E.12211,,"Exposició / Paral·lel",41.374421,2.149817,,2,P.6660122,2
E.12212,,"Exposició / Gran Via",41.374245,2.149363,,2,P.6660122,2
E.32101,,"Avinguda Paral·lel",41.375239,2.150164,,2,P.6660122,2
E.32102,,"Exposició",41.374813,2.150045,,2,P.6660122,2
P.6660122,,"Espanya",41.375018,2.151555,,1,,
1.123,123,"Rocafort",41.379232,2.154562,,0,P.6660123,1
E.12301,,"Rocafort / Diputació",41.378993,2.153829,,2,P.6660123,1
E.12302,,"Rocafort / Sepúlveda",41.378583,2.154395,,2,P.6660123,2
E.12311,,"Calàbria / Diputació",41.379659,2.15481,,2,P.6660123,2
E.12312,,"Calàbria / Sepúlveda",41.379312,2.15537,,2,P.6660123,2
P.6660123,,"Rocafort",41.379232,2.154562,,1,,
1.124,124,"Urgell",41.382487,2.158891,,0,P.6660124,1
E.12401,,"Comte d'Urgell",41.38202,2.158228,,2,P.6660124,1
E.12411,,"Villarroel / Diputació",41.382995,2.159535,,2,P.6660124,2
E.12412,,"Villarroel / Sepúlveda",41.382729,2.159912,,2,P.6660124,2
P.6660124,,"Urgell",41.382487,2.158891,,1,,
1.125,125,"Universitat",41.385815,2.164284,,0,P.6660125,1
1.212,212,"Universitat",41.384768,2.163913,,0,P.6660125,1
E.12501,,"Ronda Universitat",41.385992,2.165253,,2,P.6660125,2
E.12502,,"Pelai",41.385735,2.164657,,2,P.6660125,2
E.21201,,"Plaça Universitat",41.385403,2.163703,,2,P.6660125,1
E.21211,,"Ronda Sant Antoni",41.384775,2.163796,,2,P.6660125,2
P.6660125,,"Universitat",41.384768,2.163913,,1,,
1.126,126,"Catalunya",41.387489,2.168995,,0,P.6660126,1
1.326,326,"Catalunya",41.386322,2.170092,,0,P.6660126,1
E.12601,,"Rambla Catalunya",41.387608,2.168318,,2,P.6660126,2
E.12602,,"Ronda Universitat",41.387166,2.168432,,2,P.6660126,1
E.12611,,"Passeig de Gràcia",41.388057,2.169645,,2,P.6660126,2
E.12612,,"Ronda Sant Pere",41.387791,2.170569,,2,P.6660126,2
E.12613,,"Centre Plaça",41.387515,2.169507,,2,P.6660126,2
E.32601,,"La Rambla",41.385401,2.17012,,2,P.6660126,2
E.32603,,"Pelai",41.385464,2.169531,,2,P.6660126,1
E.32604,,"Bergara",41.385756,2.169642,,2,P.6660126,2
P.6660126,,"Catalunya",41.386322,2.170092,,1,,
1.127,127,"Urquinaona",41.389636,2.174567,,0,P.6660127,2
1.424,424,"Urquinaona",41.387961,2.173445,,0,P.6660127,2
E.12701,,"Plaça Urquinaona",41.389358,2.173399,,2,P.6660127,2
E.12711,,"Trafalgar",41.389091,2.173829,,2,P.6660127,2
E.12721,,"Bruc",41.389928,2.174995,,2,P.6660127,2
E.42401,,"Plaça Urquinaona",41.388812,2.172765,,2,P.6660127,2
E.42411,,"Jonqueres",41.387605,2.174284,,2,P.6660127,2
P.6660127,,"Urquinaona",41.389636,2.174567,,1,,
1.128,128,"Arc de Triomf",41.392337,2.181165,,0,P.6660128,1
E.12801,,"Avda. Vilanova",41.391853,2.180571,,2,P.6660128,1
E.12811,,"Nàpols",41.392968,2.181915,,2,P.6660128,1
E.12812,,"Roger de Flor",41.392477,2.18133,,2,P.6660128,2
P.6660128,,"Arc de Triomf",41.392337,2.181165,,1,,
1.129,129,"Marina",41.394725,2.185801,,0,P.6660129,1
E.12901,,"Marina",41.395614,2.186638,,2,P.6660129,1
E.12902,,"Almogàvers",41.395211,2.187104,,2,P.6660129,2
P.6660129,,"Marina",41.394725,2.185801,,1,,
1.130,130,"Glòries",41.402277,2.187537,,0,P.6660130,1
E.13001,,"Plaça de les Glòries Catalanes",41.402828,2.187336,,2,P.6660130,2
E.13002,,"Badajoz",41.403007,2.188386,,2,P.6660130,2
E.13011,,"Avda. Meridiana",41.40198,2.187121,,2,P.6660130,1
P.6660130,,"Glòries",41.402277,2.187537,,1,,
1.131,131,"Clot",41.410163,2.187003,,0,P.6660131,2
1.218,218,"Clot",41.410358,2.186835,,0,P.6660131,1
E.13101,,"Aragó / Meridiana",41.409348,2.187208,,2,P.6660131,2
E.13111,,"València",41.410883,2.187423,,2,P.6660131,2
E.21801,,"Sibelius",41.410268,2.186169,,2,P.6660131,1
P.6660131,,"Clot",41.410358,2.186835,,1,,
1.132,132,"Navas",41.416187,2.187057,,0,P.6660132,1
E.13201,,"Navas de Tolosa",41.415512,2.187142,,2,P.6660132,1
E.13211,,"Biscaia",41.416877,2.187133,,2,P.6660132,2
P.6660132,,"Navas",41.416187,2.187057,,1,,
1.133,133,"La Sagrera",41.422369,2.186975,,0,P.6660133,1
1.526,526,"La Sagrera",41.421296,2.186582,,0,P.6660133,1
1.930,930,"La Sagrera",41.420494,2.186723,,0,P.6660133,1
E.13301,,"Meridiana | Hondures",41.421766,2.187118,,2,P.6660133,1
E.13302,,"Garcilaso",41.421827,2.186574,,2,P.6660133,1
E.13303,,"Hondures",41.421748,2.187447,,2,P.6660133,1
E.13311,,"Jardins d'Elx",41.423033,2.187442,,2,P.6660133,1
E.52611,,"Felip II",41.420411,2.186561,,2,P.6660133,1
P.6660133,,"La Sagrera",41.420494,2.186723,,1,,
1.134,134,"Fabra i Puig",41.429633,2.183661,,0,P.6660134,1
E.13401,,"Passeig Fabra i Puig",41.430478,2.183513,,2,P.6660134,2
E.13402,,"Sòcrates",41.431489,2.183275,,2,P.6660134,2
E.13403,,"Avinguda Meridiana",41.429985,2.183655,,2,P.6660134,2
E.13404,,"Renfe",41.430822,2.18334,,2,P.6660134,2
E.13411,,"Concepción Arenal",41.428965,2.184201,,2,P.6660134,1
P.6660134,,"Fabra i Puig",41.429633,2.183661,,1,,
1.135,135,"Sant Andreu",41.4366,2.191187,,0,P.6660135,1
E.13501,,"Plaça d'Orfila",41.435887,2.190874,,2,P.6660135,1
E.13511,,"Joan Torras",41.437454,2.191018,,2,P.6660135,2
P.6660135,,"Sant Andreu",41.4366,2.191187,,1,,
1.136,136,"Torras i Bages",41.443225,2.190671,,0,P.6660136,1
E.13601,,"Palomar / costat muntanya",41.442394,2.190663,,2,P.6660136,2
E.13602,,"Palomar / costat mar",41.442407,2.190929,,2,P.6660136,1
E.13611,,"Passeig Santa Coloma / costat muntanya",41.444081,2.190547,,2,P.6660136,2
E.13612,,"Passeig Santa Coloma / costat mar",41.444089,2.190811,,2,P.6660136,2
P.6660136,,"Torras i Bages",41.443225,2.190671,,1,,
1.137,137,"Trinitat Vella",41.448956,2.193837,,0,P.6660137,1
E.13701,,"Via Bàrcino",41.44869,2.193917,,2,P.6660137,2
E.13702,,"Parc de la Trinitat",41.448934,2.194063,,2,P.6660137,1
P.6660137,,"Trinitat Vella",41.448956,2.193837,,1,,
1.138,138,"Baró de Viver",41.449936,2.199563,,0,P.6660138,1
E.13801,,"Riu Besòs",41.449739,2.199824,,2,P.6660138,1
P.6660138,,"Baró de Viver",41.449936,2.199563,,1,,
1.139,139,"Santa Coloma",41.451067,2.207969,,0,P.6660139,1
E.13901,,"Plaça de la Vila",41.451222,2.208461,,2,P.6660139,1
E.13902,,"Llorenç Serra",41.451147,2.207837,,2,P.6660139,2
E.13903,,"Avinguda Santa Coloma",41.450964,2.207855,,2,P.6660139,2
P.6660139,,"Santa Coloma",41.451067,2.207969,,1,,
1.140,140,"Fondo",41.451583,2.218435,,0,P.6660140,1
1.942,942,"Fondo",41.451876,2.218485,,0,P.6660140,1
E.14001,,"Sicília",41.451496,2.217392,,2,P.6660140,2
E.14002,,"Mossèn Cinto Verdaguer",41.451499,2.218534,,2,P.6660140,1
P.6660140,,"Fondo",41.451876,2.218485,,1,,
1.210,210,"Paral·lel",41.375004,2.169117,,0,P.6660210,1
1.323,323,"Paral·lel",41.374892,2.169118,,0,P.6660210,1
1.9901,9901,"Paral·lel",41.373847,2.168853,,0,P.6660210,1
E.21001,,"Nou de la Rambla",41.375064,2.17039,,2,P.6660210,2
E.21002,,"Avinguda Paral·lel",41.374816,2.170248,,2,P.6660210,1
E.21011,,"Fontrodona",41.374827,2.167815,,2,P.6660210,2
E.21012,,"Ronda Sant Pau",41.375088,2.168133,,2,P.6660210,2
P.6660210,,"Paral·lel",41.373847,2.168853,,1,,
1.211,211,"Sant Antoni",41.379833,2.163241,,0,P.6660211,1
E.21101,,"Villarroel",41.380656,2.163245,,2,P.6660211,1
E.21111,,"Sant Antoni Abat",41.378989,2.163249,,2,P.6660211,2
E.21112,,"Urgell",41.378987,2.163017,,2,P.6660211,2
P.6660211,,"Sant Antoni",41.379833,2.163241,,1,,
1.213,213,"Passeig de Gràcia",41.389416,2.168243,,0,P.6660213,1
1.327,327,"Passeig de Gràcia",41.391603,2.165347,,0,P.6660213,1
1.425,425,"Passeig de Gràcia",41.390057,2.167846,,0,P.6660213,1
E.21301,,"Rbla. Catalunya",41.388924,2.167614,,2,P.6660213,1
E.21311,,"Pau Claris",41.389678,2.168787,,2,P.6660213,2
E.32701,,"Aragó / Pau Claris",41.392,2.165424,,2,P.6660213,1
E.32702,,"Aragó / Rambla Catalunya",41.391836,2.165009,,2,P.6660213,2
E.32711,,"Consell de Cent",41.391529,2.165493,,2,P.6660213,2
E.42501,,"Passeig de Gràcia / Gran Via",41.389767,2.167631,,2,P.6660213,2
P.6660213,,"Passeig de Gràcia",41.390057,2.167846,,1,,
1.214,214,"Tetuan",41.394887,2.175559,,0,P.6660214,1
E.21401,,"Diputació / Passeig de Sant Joan",41.394837,2.174781,,2,P.6660214,2
E.21402,,"Casp / Passeig de Sant Joan",41.394318,2.175429,,2,P.6660214,1
P.6660214,,"Tetuan",41.394887,2.175559,,1,,
1.215,215,"Monumental",41.400524,2.179462,,0,P.6660215,1
E.21501,,"Marina",41.400346,2.179443,,2,P.6660215,1
E.21502,,"Marina / Plaça de Toros",41.400488,2.179625,,2,P.6660215,2
P.6660215,,"Monumental",41.400524,2.179462,,1,,
1.216,216,"Sagrada Família",41.403985,2.175106,,0,P.6660216,1
1.523,523,"Sagrada Família",41.403835,2.173618,,0,P.6660216,1
E.21601,,"Mallorca - Marina",41.403871,2.175745,,2,P.6660216,1
E.52301,,"Provença / Avinguda Gaudí",41.404497,2.174222,,2,P.6660216,1
E.52311,,"Sardenya",41.40369,2.173068,,2,P.6660216,2
E.52312,,"Plaça de la Sagrada Família",41.403429,2.173408,,2,P.6660216,2
P.6660216,,"Sagrada Família",41.403835,2.173618,,1,,
1.217,217,"Encants",41.407236,2.1827,,0,P.6660217,1
E.21701,,"València / Mallorca",41.407065,2.182131,,2,P.6660217,2
E.21702,,"València / Aragó",41.406828,2.182467,,2,P.6660217,1
P.6660217,,"Encants",41.407236,2.1827,,1,,
1.219,219,"Bac de Roda",41.415162,2.195503,,0,P.6660219,1
E.21901,,"Fluvià",41.415717,2.196254,,2,P.6660219,1
E.21911,,"Bac de Roda",41.414843,2.195079,,2,P.6660219,2
P.6660219,,"Bac de Roda",41.415162,2.195503,,1,,
1.220,220,"Sant Martí",41.419064,2.200724,,0,P.6660220,1
E.22001,,"Agricultura",41.418519,2.199981,,2,P.6660220,1
E.22011,,"Cantàbria",41.419397,2.201155,,2,P.6660220,2
P.6660220,,"Sant Martí",41.419064,2.200724,,1,,
1.221,221,"La Pau",41.424033,2.205608,,0,P.6660221,1
1.413,413,"La Pau",41.423678,2.205194,,0,P.6660221,1
E.41301,,"Rambla Guipúscoa / Ca n'Oliva",41.423438,2.206082,,2,P.6660221,1
P.6660221,,"La Pau",41.424033,2.205608,,1,,
1.222,222,"Verneda",41.430004,2.209883,,0,P.6660222,1
E.22201,,"Santander",41.430179,2.209686,,2,P.6660222,1
E.22202,,"Ctra. Mataró",41.429943,2.210155,,2,P.6660222,2
P.6660222,,"Verneda",41.430004,2.209883,,1,,
1.223,223,"Artigues | Sant Adrià",41.433848,2.217772,,0,P.6660223,1
E.22301,,"Ctra. Santa Coloma",41.433605,2.216873,,2,P.6660223,1
E.22302,,"Avinguda Joan XXIII",41.433363,2.217288,,2,P.6660223,2
P.6660223,,"Artigues | Sant Adrià",41.433848,2.217772,,1,,
1.224,224,"Sant Roc",41.435831,2.228606,,0,P.6660224,1
E.22401,,"Plaça Sant Roc",41.43534,2.227756,,2,P.6660224,2
E.22402,,"Alfons XII",41.435141,2.228106,,2,P.6660224,1
P.6660224,,"Sant Roc",41.435831,2.228606,,1,,
1.225,225,"Gorg",41.440237,2.233441,,0,P.6660225,1
1.936,936,"Gorg",41.440443,2.233892,,0,P.6660225,1
E.22501,,"Avinguda Alfons XIII",41.44034,2.233353,,2,P.6660225,2
E.22502,,"Guifré",41.440143,2.233906,,2,P.6660225,1
E.93601,,"Antoni Bori",41.440055,2.234717,,2,P.6660225,1
P.6660225,,"Gorg",41.440443,2.233892,,1,,
1.226,226,"Pep Ventura",41.443905,2.237959,,0,P.6660226,1
E.22601,,"Avinguda Alfons XIII",41.444357,2.237835,,2,P.6660226,1
E.22602,,"Avinguda Marquès de Mont-roig",41.444449,2.238394,,2,P.6660226,2
E.22603,,"Plaça Països Catalans",41.444285,2.238598,,2,P.6660226,2
P.6660226,,"Pep Ventura",41.443905,2.237959,,1,,
1.227,227,"Badalona Pompeu Fabra",41.449054,2.244097,,0,P.6660227,1
E.22701,,"Avinguda Martí Pujol",41.449727,2.245194,,2,P.6660227,1
E.22711,,"La Creu",41.44889,2.244443,,2,P.6660227,1
P.6660227,,"Badalona Pompeu Fabra",41.449054,2.244097,,1,,
1.314,314,"Zona Universitària",41.384115,2.111179,,0,P.6660314,1
1.918,918,"Zona Universitària",41.383742,2.111621,,0,P.6660314,1
E.91801,,"Dr. Marañón",41.384033,2.111956,,2,P.6660314,1
E.31401,,"Avinguda Diagonal",41.384142,2.11152,,2,P.6660314,2
E.31402,,"Facultat d'Estudis Empresarials",41.384535,2.111656,,2,P.6660314,2
E.31403,,"Dr. Marañón / Diagonal",41.384221,2.111848,,2,P.6660314,2
E.31404,,"Parc Cervantes",41.384475,2.111419,,2,P.6660314,2
P.6660314,,"Zona Universitària",41.383742,2.111621,,1,,
1.315,315,"Palau Reial",41.38598,2.118538,,0,P.6660315,1
E.31501,,"Avda. Diagonal",41.385593,2.118081,,2,P.6660315,1
E.31503,,"Avda. Diagonal",41.38607,2.117721,,2,P.6660315,2
E.31504,,"Palau de Pedralbes",41.386128,2.117957,,2,P.6660315,2
P.6660315,,"Palau Reial",41.38598,2.118538,,1,,
1.316,316,"Maria Cristina",41.387816,2.125791,,0,P.6660316,1
E.31602,,"Av. Diagonal / Doctor Ferran",41.388232,2.126267,,2,P.6660316,2
E.31603,,"Gran Via Carles III",41.387787,2.126796,,2,P.6660316,1
E.31604,,"Capità Arenas",41.388294,2.126507,,2,P.6660316,2
P.6660316,,"Maria Cristina",41.387816,2.125791,,1,,
1.317,317,"Les Corts",41.38412,2.130871,,0,P.6660317,1
E.31701,,"Travessera de les Corts",41.383898,2.130616,,2,P.6660317,1
E.31702,,"Joan Güell",41.384391,2.130637,,2,P.6660317,2
P.6660317,,"Les Corts",41.38412,2.130871,,1,,
1.318,318,"Plaça del Centre",41.381922,2.135884,,0,P.6660318,1
E.31801,,"Plaça del Centre (mar)",41.38167,2.135925,,2,P.6660318,1
E.31802,,"Plaça del Centre (muntanya)",41.382112,2.135628,,2,P.6660318,2
P.6660318,,"Plaça del Centre",41.381922,2.135884,,1,,
1.319,319,"Sants Estació",41.381598,2.140992,,0,P.6660319,1
1.518,518,"Sants Estació",41.379955,2.140398,,0,P.6660319,1
E.31901,,"Pl. Països Catalans / Numància / Ambulatori",41.380946,2.141664,,2,P.6660319,1
E.31902,,"Av. Josep Tarradellas",41.381082,2.14198,,2,P.6660319,2
E.31911,,"Numància",41.382392,2.140153,,2,P.6660319,2
E.31912,,"Enric Bargés",41.382072,2.139964,,2,P.6660319,2
E.51801,,"Estació RENFE / Pl. Joan Peiró",41.37951,2.139573,,2,P.6660319,1
E.51802,,"Estació RENFE / Pl. Països Catalans",41.37972,2.139923,,2,P.6660319,1
P.6660319,,"Sants Estació",41.381598,2.140992,,1,,
1.320,320,"Tarragona",41.378493,2.145336,,0,P.6660320,1
E.32001,,"Elisi",41.378615,2.144759,,2,P.6660320,2
E.32002,,"València",41.378898,2.145125,,2,P.6660320,2
E.32003,,"Tarragona",41.377859,2.145762,,2,P.6660320,2
E.32004,,"Aragó",41.378245,2.146084,,2,P.6660320,1
P.6660320,,"Tarragona",41.378493,2.145336,,1,,
1.322,322,"Poble Sec",41.374996,2.160245,,0,P.6660322,1
E.32201,,"Manso",41.375149,2.158911,,2,P.6660322,1
E.32202,,"Teodor Bonaplata",41.374874,2.158953,,2,P.6660322,2
E.32211,,"Parlament",41.375117,2.161354,,2,P.6660322,2
P.6660322,,"Poble Sec",41.374996,2.160245,,1,,
1.324,324,"Drassanes",41.376538,2.175664,,0,P.6660324,1
E.32401,,"La Rambla",41.376946,2.176522,,2,P.6660324,1
E.32403,,"Santa Madrona",41.37708,2.175961,,2,P.6660324,2
E.32411,,"Drassanes",41.376587,2.175559,,2,P.6660324,1
P.6660324,,"Drassanes",41.376538,2.175664,,1,,
1.325,325,"Liceu",41.381445,2.17303,,0,P.6660325,1
E.32501,,"La Rambla / Mercat de la Boqueria",41.38202,2.172469,,2,P.6660325,2
E.32511,,"La Rambla / Mercat de la Boqueria",41.382015,2.172621,,2,P.6660325,2
E.32521,,"La Rambla / Teatre Liceu",41.380925,2.173559,,2,P.6660325,1
E.32531,,"La Rambla / Teatre Liceu",41.380864,2.173445,,2,P.6660325,1
P.6660325,,"Liceu",41.381445,2.17303,,1,,
1.328,328,"Diagonal",41.395888,2.160047,,0,P.6660328,1
1.521,521,"Diagonal",41.394435,2.15883,,0,P.6660328,1
E.32801,,"Pg. de Gràcia / Rambla Catalunya",41.395436,2.160638,,2,P.6660328,1
E.32802,,"Pg. de Gràcia / Pau Claris ",41.395636,2.160807,,2,P.6660328,2
E.32803,,"Pg. de Gràcia (escala mecànica)",41.39536,2.160571,,2,P.6660328,2
E.32811,,"Diagonal / Rambla Catalunya",41.396072,2.159861,,2,P.6660328,2
E.32812,,"Diagonal / Pau Claris",41.396216,2.160104,,2,P.6660328,2
E.52101,,"Rambla Catalunya",41.39441,2.159101,,2,P.6660328,2
E.52111,,"Rosselló / FGC",41.394246,2.15888,,2,P.6660328,1
P.6660328,,"Diagonal",41.394435,2.15883,,1,,
1.329,329,"Fontana",41.402009,2.153022,,0,P.6660329,1
E.32901,,"Gran de Gràcia / Astúries",41.402585,2.152678,,2,P.6660329,1
P.6660329,,"Fontana",41.402009,2.153022,,1,,
1.330,330,"Lesseps",41.405738,2.150407,,0,P.6660330,1
E.33001,,"Septimània",41.406206,2.149611,,2,P.6660330,2
E.33011,,"Plaça Lesseps",41.406674,2.150221,,2,P.6660330,1
P.6660330,,"Lesseps",41.405738,2.150407,,1,,
1.331,331,"Vallcarca",41.411975,2.144337,,0,P.6660331,2
E.33101,,"Avinguda República Argentina",41.41141,2.145043,,2,P.6660331,2
E.33102,,"Gomis",41.411782,2.144553,,2,P.6660331,2
E.33103,,"Avinguda Vallcarca + Parc Güell",41.411696,2.145265,,2,P.6660331,2
P.6660331,,"Vallcarca",41.411975,2.144337,,1,,
1.332,332,"Penitents",41.418279,2.140972,,0,P.6660332,1
E.33201,,"Avinguda Vallcarca",41.417503,2.141275,,2,P.6660332,2
E.33202,,"Anna Piferrer",41.417387,2.140955,,2,P.6660332,1
P.6660332,,"Penitents",41.418279,2.140972,,1,,
1.333,333,"Vall d'Hebron",41.425283,2.142565,,0,P.6660333,1
1.534,534,"Vall d'Hebron",41.424993,2.142356,,0,P.6660333,1
E.33301,,"Mercat de Vall d'Hebron",41.424868,2.142964,,2,P.6660333,1
E.53401,,"Residència Sanitària",41.425372,2.142157,,2,P.6660333,1
E.53402,,"Avinguda Jordà",41.424675,2.141714,,2,P.6660333,2
P.6660333,,"Vall d'Hebron",41.425283,2.142565,,1,,
1.334,334,"Montbau",41.43062,2.145039,,0,P.6660334,1
E.33401,,"Parc Vall d'Hebron",41.430314,2.145367,,2,P.6660334,2
E.33402,,"Residència Sanitària / Llars Mundet",41.430418,2.144552,,2,P.6660334,1
E.33403,,"Palau  Olímpic Vall d'Hebron",41.430504,2.145485,,2,P.6660334,1
P.6660334,,"Montbau",41.43062,2.145039,,1,,
1.335,335,"Mundet",41.435645,2.148472,,0,P.6660335,1
E.33501,,"Can Marcet",41.434953,2.148089,,2,P.6660335,1
E.33502,,"Salesians",41.435344,2.148425,,2,P.6660335,1
E.33503,,"Passeig Vall d'Hebron",41.435537,2.147228,,2,P.6660335,1
P.6660335,,"Mundet",41.435645,2.148472,,1,,
1.336,336,"Valldaura",41.437996,2.156878,,0,P.6660336,1
E.33601,,"Passeig Valldaura",41.437621,2.156426,,2,P.6660336,1
P.6660336,,"Valldaura",41.437996,2.156878,,1,,
1.337,337,"Canyelles",41.441754,2.166388,,0,P.6660337,1
E.33701,,"Via Favència",41.441933,2.166593,,2,P.6660337,1
E.33711,,"García Lorca",41.441695,2.165188,,2,P.6660337,2
P.6660337,,"Canyelles",41.441754,2.166388,,1,,
1.338,338,"Roquetes",41.44767,2.176098,,0,P.6660338,1
E.33801,,"Vidal i Guasch",41.448091,2.177066,,2,P.6660338,1
E.33811,,"Jaume Pinent",41.446849,2.174878,,2,P.6660338,1
E.33812,,"Carrer de les Torres",41.446928,2.176081,,2,P.6660338,2
P.6660338,,"Roquetes",41.44767,2.176098,,1,,
1.339,339,"Trinitat Nova",41.4495,2.184097,,0,P.6660339,1
1.434,434,"Trinitat Nova",41.449156,2.182434,,0,P.6660339,1
1.1136,1136,"Trinitat Nova",41.4492,2.182366,,0,P.6660339,1
E.33901,,"Palamós",41.449421,2.184347,,2,P.6660339,1
E.43401,,"Pedrosa",41.449209,2.183288,,2,P.6660339,1
E.43402,,"Aiguablava",41.448659,2.181714,,2,P.6660339,2
P.6660339,,"Trinitat Nova",41.4495,2.184097,,1,,
1.414,414,"Besòs",41.419901,2.210231,,0,P.6660414,1
E.41401,,"Jaume Fabre",41.42034,2.210283,,2,P.6660414,2
E.41402,,"Gran Via / Pere IV",41.420264,2.209848,,2,P.6660414,1
P.6660414,,"Besòs",41.419901,2.210231,,1,,
1.415,415,"Besòs Mar",41.415099,2.216082,,0,P.6660415,1
E.41501,,"Jaume Fabre",41.414531,2.216678,,2,P.6660415,1
E.41511,,"Ferrer Bassa",41.415684,2.215414,,2,P.6660415,2
P.6660415,,"Besòs Mar",41.415099,2.216082,,1,,
1.416,416,"El Maresme | Fòrum",41.41178,2.216692,,0,P.6660416,1
E.41601,,"Rambla de Prim",41.412209,2.217577,,2,P.6660416,1
E.41611,,"Avinguda Diagonal",41.411733,2.216063,,2,P.6660416,2
P.6660416,,"El Maresme | Fòrum",41.41178,2.216692,,1,,
1.417,417,"Selva de Mar",41.408001,2.209122,,0,P.6660417,1
E.41701,,"Selva de Mar",41.408214,2.209567,,2,P.6660417,2
E.41711,,"Provençals",41.407773,2.208358,,2,P.6660417,1
P.6660417,,"Selva de Mar",41.408001,2.209122,,1,,
1.418,418,"Poblenou",41.403716,2.203371,,0,P.6660418,1
E.41801,,"Pujades / Bilbao",41.403511,2.202941,,2,P.6660418,1
P.6660418,,"Poblenou",41.403716,2.203371,,1,,
1.419,419,"Llacuna",41.399425,2.197712,,0,P.6660419,1
E.41901,,"Pujades / Ciutat de Granada",41.399208,2.197267,,2,P.6660419,1
P.6660419,,"Llacuna",41.399425,2.197712,,1,,
1.420,420,"Bogatell",41.395107,2.192012,,0,P.6660420,1
E.42001,,"Pujades / Pere IV",41.394884,2.191566,,2,P.6660420,2
E.42011,,"Pujades",41.395487,2.192628,,2,P.6660420,1
P.6660420,,"Bogatell",41.395107,2.192012,,1,,
1.421,421,"Ciutadella | Vila Olímpica",41.386687,2.192991,,0,P.6660421,2
E.42101,,"Avinguda Icària",41.387903,2.193414,,2,P.6660421,2
E.42102,,"Zoo",41.388155,2.193054,,2,P.6660421,2
P.6660421,,"Ciutadella | Vila Olímpica",41.386687,2.192991,,1,,
1.422,422,"Barceloneta",41.381811,2.184787,,0,P.6660422,1
E.42201,,"Plaça Pau Vila",41.382368,2.185819,,2,P.6660422,1
P.6660422,,"Barceloneta",41.381811,2.184787,,1,,
1.423,423,"Jaume I",41.384126,2.178531,,0,P.6660423,2
E.42301,,"Plaça de l'Àngel",41.383828,2.178427,,2,P.6660423,2
E.42311,,"Argenteria",41.383772,2.179184,,2,P.6660423,2
P.6660423,,"Jaume I",41.384126,2.178531,,1,,
1.426,426,"Girona",41.39492,2.170825,,0,P.6660426,1
E.42601,,"Consell de Cent",41.394835,2.170834,,2,P.6660426,1
E.42602,,"Girona",41.394666,2.171437,,2,P.6660426,2
P.6660426,,"Girona",41.39492,2.170825,,1,,
1.427,427,"Verdaguer",41.400365,2.16806,,0,P.6660427,2
1.522,522,"Verdaguer",41.398952,2.167089,,0,P.6660427,2
E.42701,,"Passeig Sant Joan",41.399897,2.168743,,2,P.6660427,2
E.52201,,"Bailèn",41.399079,2.167444,,2,P.6660427,2
E.52211,,"Avinguda Diagonal",41.398461,2.166191,,2,P.6660427,2
E.52212,,"Girona",41.398684,2.166127,,2,P.6660427,2
P.6660427,,"Verdaguer",41.400365,2.16806,,1,,
1.428,428,"Joanic",41.406427,2.163225,,0,P.6660428,1
E.42801,,"Escorial",41.406025,2.162898,,2,P.6660428,1
E.42802,,"Pi i Margall",41.405736,2.163178,,2,P.6660428,2
P.6660428,,"Joanic",41.406427,2.163225,,1,,
1.429,429,"Alfons X",41.412377,2.166382,,0,P.6660429,1
E.42901,,"Ronda Guinardó",41.412396,2.166512,,2,P.6660429,1
E.42902,,"Lepant",41.411948,2.166927,,2,P.6660429,2
E.42903,,"Plaça Alfons el Savi",41.412068,2.165087,,2,P.6660429,2
P.6660429,,"Alfons X",41.412377,2.166382,,1,,
1.430,430,"Guinardó | Hospital de Sant Pau ",41.415962,2.173989,,0,P.6660430,1
E.43001,,"Sant Quintí",41.41602,2.174486,,2,P.6660430,1
E.43012,,"Hospital de Sant Pau",41.415769,2.174418,,2,P.6660430,1
P.6660430,,"Guinardó | Hospital de Sant Pau ",41.415962,2.173989,,1,,
1.431,431,"Maragall",41.423104,2.177397,,0,P.6660431,2
1.528,528,"Maragall",41.425045,2.176485,,0,P.6660431,2
E.43101,,"Ronda Guinardó",41.422483,2.177379,,2,P.6660431,2
E.52801,,"Ramon Albó",41.424473,2.177164,,2,P.6660431,2
E.52811,,"Avinguda Borbó",41.4257,2.176063,,2,P.6660431,2
E.52812,,"Prat d'en Roquer",41.425508,2.176461,,2,P.6660431,2
P.6660431,,"Maragall",41.423104,2.177397,,1,,
1.432,432,"Llucmajor",41.436985,2.173343,,0,P.6660432,1
E.43201,,"Passeig Verdum / Llucmajor",41.437617,2.173896,,2,P.6660432,1
E.43202,,"Plaça Jardins d'Alfàbia",41.437115,2.173829,,2,P.6660432,2
E.43211,,"Pi i Molist",41.43674,2.17288,,2,P.6660432,2
P.6660432,,"Llucmajor",41.436985,2.173343,,1,,
1.433,433,"Via Júlia",41.44373,2.17855,,0,P.6660433,1
E.43301,,"Via Júlia / Joaquim Valls",41.444253,2.178897,,2,P.6660433,1
E.43311,,"Via Júlia / Argullós",41.443562,2.178599,,2,P.6660433,2
P.6660433,,"Via Júlia",41.44373,2.17855,,1,,
1.509,509,"Cornellà Centre",41.35729,2.070428,,0,P.6660509,1
E.50901,,"Plaça Estació",41.35735,2.069902,,2,P.6660509,1
P.6660509,,"Cornellà Centre",41.35729,2.070428,,1,,
1.510,510,"Gavarra",41.357993,2.079269,,0,P.6660510,1
E.51001,,"Lindavista",41.357767,2.078956,,2,P.6660510,1
E.51002,,"Plaça Tàrrega",41.35792,2.078852,,2,P.6660510,2
P.6660510,,"Gavarra",41.357993,2.079269,,1,,
1.511,511,"Sant Ildefons",41.363381,2.084393,,0,P.6660511,1
E.51101,,"Avinguda República Argentina",41.36339,2.083928,,2,P.6660511,2
E.51102,,"Mercat Sant Ildefons",41.36309,2.084097,,2,P.6660511,1
P.6660511,,"Sant Ildefons",41.363381,2.084393,,1,,
1.512,512,"Can Boixeres",41.366571,2.091506,,0,P.6660512,1
E.51201,,"Estronci",41.366106,2.090696,,2,P.6660512,1
P.6660512,,"Can Boixeres",41.366571,2.091506,,1,,
1.513,513,"Can Vidalet",41.371279,2.099445,,0,P.6660513,1
E.51301,,"Hortènsia",41.371463,2.099383,,2,P.6660513,2
E.51311,,"Maladeta",41.371968,2.099903,,2,P.6660513,1
P.6660513,,"Can Vidalet",41.371279,2.099445,,1,,
1.514,514,"Pubilla Cases",41.373838,2.107209,,0,P.6660514,1
E.51401,,"Avinguda Josep Molins",41.373509,2.10632,,2,P.6660514,1
E.51402,,"Esteve Grau",41.37349,2.106872,,2,P.6660514,2
E.51411,,"Doctor Ramon Solanich",41.374032,2.107925,,2,P.6660514,2
P.6660514,,"Pubilla Cases",41.373838,2.107209,,1,,
1.515,515,"Collblanc",41.375743,2.119195,,0,P.6660515,1
1.916,916,"Collblanc",41.376056,2.118397,,0,P.6660515,1
E.51501,,"Travessera de les Corts",41.37584,2.120434,,2,P.6660515,2
E.51502,,"Doctor Martí i Julià",41.375653,2.120625,,2,P.6660515,2
E.51511,,"Sant Ramon",41.375806,2.118369,,2,P.6660515,2
E.91601,,"Av. Sant Ramon",41.375869,2.118448,,2,P.6660515,1
P.6660515,,"Collblanc",41.376056,2.118397,,1,,
1.516,516,"Badal",41.375581,2.127402,,0,P.6660516,1
E.51601,,"Carrer de Sants",41.375618,2.128636,,2,P.6660516,2
E.51602,,"Carreras i Candi",41.375438,2.126221,,2,P.6660516,2
E.51611,,"Carrer de Sants / Arizala",41.375672,2.126032,,2,P.6660516,1
P.6660516,,"Badal",41.375581,2.127402,,1,,
1.519,519,"Entença",41.384467,2.145619,,0,P.6660519,1
E.51901,,"Rocafort",41.384964,2.146111,,2,P.6660519,1
E.51911,,"Entença",41.384122,2.145048,,2,P.6660519,2
P.6660519,,"Entença",41.384467,2.145619,,1,,
1.520,520,"Hospital Clínic",41.388608,2.151081,,0,P.6660520,1
E.52001,,"Villarroel",41.388867,2.151606,,2,P.6660520,2
E.52011,,"Comte d'Urgell",41.38834,2.150183,,2,P.6660520,2
E.52012,,"Rosselló",41.388395,2.150619,,2,P.6660520,1
P.6660520,,"Hospital Clínic",41.388608,2.151081,,1,,
1.524,524,"Sant Pau | Dos de Maig",41.410753,2.176016,,0,P.6660524,1
E.52401,,"Dos de Maig",41.411141,2.176365,,2,P.6660524,1
E.52411,,"Cartagena",41.410041,2.175706,,2,P.6660524,2
P.6660524,,"Sant Pau | Dos de Maig",41.410753,2.176016,,1,,
1.525,525,"Camp de l'Arpa",41.41506,2.181497,,0,P.6660525,1
E.52501,,"Passeig Maragall",41.414755,2.180955,,2,P.6660525,1
E.52511,,"Indústria",41.415282,2.1817,,2,P.6660525,2
P.6660525,,"Camp de l'Arpa",41.41506,2.181497,,1,,
1.527,527,"Congrés",41.42344,2.181186,,0,P.6660527,1
E.52701,,"Matanzas",41.423423,2.182114,,2,P.6660527,1
E.52711,,"Francesc Tàrrega",41.423557,2.180783,,2,P.6660527,2
P.6660527,,"Congrés",41.42344,2.181186,,1,,
1.529,529,"Virrei Amat",41.429703,2.174913,,0,P.6660529,1
E.52901,,"Pi i Molist",41.430464,2.174529,,2,P.6660529,2
E.52902,,"Fabra i Puig",41.430235,2.174078,,2,P.6660529,2
E.52903,,"Virrei Amat (muntanya)",41.430237,2.174763,,2,P.6660529,1
E.52911,,"Felip II / Virrei Amat",41.429204,2.17555,,2,P.6660529,2
E.52912,,"Virrei Amat (mar)",41.429372,2.174795,,2,P.6660529,2
P.6660529,,"Virrei Amat",41.429703,2.174913,,1,,
1.530,530,"Vilapicina",41.430465,2.167619,,0,P.6660530,1
E.53001,,"Canfranc",41.430571,2.167316,,2,P.6660530,2
E.53002,,"Cartellà",41.430351,2.166716,,2,P.6660530,2
E.53011,,"Passeig de les Palmeres",41.430326,2.168477,,2,P.6660530,1
E.53012,,"Teide",41.430552,2.168485,,2,P.6660530,1
P.6660530,,"Vilapicina",41.430465,2.167619,,1,,
1.531,531,"Horta",41.429692,2.159974,,0,P.6660531,1
E.53101,,"Plaça Eivissa",41.430111,2.16095,,2,P.6660531,2
E.53102,,"Tajo",41.429679,2.160968,,2,P.6660531,2
E.53111,,"Lisboa",41.429693,2.158815,,2,P.6660531,1
P.6660531,,"Horta",41.429692,2.159974,,1,,
1.532,532,"El Carmel",41.42445,2.155099,,0,P.6660532,1
E.53201,,"Plaça Pastrana",41.425539,2.156035,,2,P.6660532,1
E.53211,,"Llobregós",41.423286,2.154371,,2,P.6660532,2
E.53212,,"Mercat",41.423645,2.155015,,2,P.6660532,1
P.6660532,,"El Carmel",41.42445,2.155099,,1,,
1.533,533,"El Coll | La Teixonera",41.421997,2.148348,,0,P.6660533,1
E.53301,,"Passeig Mare de Déu del Coll",41.420999,2.150303,,2,P.6660533,1
E.53302,,"Beat Almató",41.419762,2.149433,,2,P.6660533,1
E.53311,,"Arenys",41.423288,2.147996,,2,P.6660533,1
P.6660533,,"El Coll | La Teixonera",41.421997,2.148348,,1,,
1.901,901,"Aeroport T1",41.288295,2.071152,,0,P.6660901,1
E.90101,,"Aeroport T1",41.288192,2.07121,,2,P.6660901,1
P.6660901,,"Aeroport T1",41.288295,2.071152,,1,,
1.903,903,"Aeroport T2",41.303823,2.073113,,0,P.6660903,1
E.90301,,"Aeroport T2",41.303921,2.07302,,2,P.6660903,1
P.6660903,,"Aeroport T2",41.303823,2.073113,,1,,
1.904,904,"Mas Blau",41.311225,2.073471,,0,P.6660904,1
E.90401,,"Avinguda de Les Garrigues / Alta Ribagorça",41.311866,2.073321,,2,P.6660904,1
P.6660904,,"Mas Blau",41.311225,2.073471,,1,,
1.905,905,"Parc Nou",41.316628,2.087929,,0,P.6660905,1
E.90501,,"Riu Llobregat / Riu Xúquer",41.316887,2.087374,,2,P.6660905,1
E.90511,,"Riu Llobregat / Riu Ebre",41.316411,2.088911,,2,P.6660905,2
P.6660905,,"Parc Nou",41.316628,2.087929,,1,,
1.906,906,"Cèntric",41.32225,2.093463,,0,P.6660906,1
E.90601,,"Plaça Catalunya",41.322542,2.09312,,2,P.6660906,1
E.90602,,"C. Lleida",41.321848,2.093831,,2,P.6660906,2
P.6660906,,"Cèntric",41.32225,2.093463,,1,,
1.907,907,"El Prat Estació",41.331993,2.089927,,0,P.6660907,1
E.90701,,"Doctor Soler i Torrens",41.331267,2.089933,,2,P.6660907,1
P.6660907,,"El Prat Estació",41.331993,2.089927,,1,,
1.909,909,"Les Moreres",41.329119,2.103073,,0,P.6660909,1
E.90901,,"Av. Verge de Montserrat / Ctra. de la Marina",41.328832,2.102664,,2,P.6660909,2
E.90902,,"Av. Verge de Montserrat / Les Moreres",41.329205,2.103481,,2,P.6660909,1
P.6660909,,"Les Moreres",41.329119,2.103073,,1,,
1.910,910,"Mercabarna",41.333485,2.111254,,0,P.6660910,1
E.91001,,"Carrer K / Carrer Transversal 6",41.333832,2.111971,,2,P.6660910,1
P.6660910,,"Mercabarna",41.333485,2.111254,,1,,
1.911,911,"Parc Logístic",41.341664,2.127401,,0,P.6660911,1
E.91101,,"Av. Parc Logístic / C. Número Un",41.341353,2.127134,,2,P.6660911,1
E.91102,,"Av. Parc Logístic / C. Número Vint-i-cinc",41.341697,2.128167,,2,P.6660911,2
P.6660911,,"Parc Logístic",41.341664,2.127401,,1,,
1.912,912,"Fira",41.351988,2.130452,,0,P.6660912,1
E.91201,,"Botànica + Accés NORD | EST",41.352079,2.130818,,2,P.6660912,1
P.6660912,,"Fira",41.351988,2.130452,,1,,
1.913,913,"Europa | Fira",41.35756,2.125924,,0,P.6660913,1
E.91301,,"Fira Gran Via",41.356714,2.125841,,2,P.6660913,1
E.91311,,"Plaça Europa",41.357311,2.124527,,2,P.6660913,1
P.6660913,,"Europa | Fira",41.35756,2.125924,,1,,
1.914,914,"Can Tries | Gornal",41.360894,2.117993,,0,P.6660914,1
E.91401,,"Can Tries - Narcís de Monturiol",41.360636,2.118224,,2,P.6660914,1
P.6660914,,"Can Tries | Gornal",41.360894,2.117993,,1,,
1.932,932,"Onze de Setembre",41.429559,2.193564,,0,P.6660932,1
E.93201,,"Onze de Setembre",41.429849,2.193301,,2,P.6660932,1
P.6660932,,"Onze de Setembre",41.429559,2.193564,,1,,
1.933,933,"Bon Pastor",41.436203,2.205294,,0,P.6660933,1
E.93301,,"Sant Adrià",41.436053,2.204732,,2,P.6660933,1
P.6660933,,"Bon Pastor",41.436203,2.205294,,1,,
1.934,934,"Llefià",41.44136,2.216906,,0,P.6660934,1
E.93401,,"Avinguda d'Amèrica",41.441306,2.217521,,2,P.6660934,1
E.93402,,"Avinguda d'Amèrica (mercat)",41.442168,2.217084,,2,P.6660934,1
E.93403,,"Ronda Sant Antoni",41.441106,2.21732,,2,P.6660934,1
P.6660934,,"Llefià",41.44136,2.216906,,1,,
1.935,935,"La Salut",41.442817,2.224737,,0,P.6660935,1
E.93501,,"Marquès de Sant Mori",41.442643,2.22423,,2,P.6660935,2
E.93502,,"Quevedo",41.442703,2.225044,,2,P.6660935,2
E.93503,,"Juan Valera",41.441486,2.223807,,2,P.6660935,1
E.93504,,"Austràlia",41.442219,2.223288,,2,P.6660935,2
P.6660935,,"La Salut",41.442817,2.224737,,1,,
1.940,940,"Can Peixauet",41.443986,2.210027,,0,P.6660940,1
E.94001,,"Avinguda Santa Coloma",41.44478,2.209696,,2,P.6660940,1
E.94002,,"Avinguda Banús Baixa",41.444219,2.210026,,2,P.6660940,2
P.6660940,,"Can Peixauet",41.443986,2.210027,,1,,
1.941,941,"Santa Rosa",41.44685,2.215809,,0,P.6660941,1
E.94101,,"Banús Baixa",41.446779,2.21557,,2,P.6660941,1
P.6660941,,"Santa Rosa",41.44685,2.215809,,1,,
1.943,943,"Església Major",41.454797,2.212177,,0,P.6660943,1
E.94301,,"Mossèn Camil Rossell",41.453886,2.211442,,2,P.6660943,1
P.6660943,,"Església Major",41.454797,2.212177,,1,,
1.944,944,"Singuerlín",41.459413,2.205429,,0,P.6660944,1
E.94401,,"Passatge de Salvatella",41.459606,2.205593,,2,P.6660944,1
P.6660944,,"Singuerlín",41.459413,2.205429,,1,,
1.945,945,"Can Zam",41.456666,2.198569,,0,P.6660945,1
E.94501,,"Francesc Macià",41.457568,2.198282,,2,P.6660945,1
P.6660945,,"Can Zam",41.456666,2.198569,,1,,
1.956,956,"Foc",41.356161,2.141804,,0,P.6660956,1
E.95601,,"Passeig de la Zona Franca",41.355655,2.142091,,2,P.6660956,1
E.95602,,"Foc",41.356221,2.14209,,2,P.6660956,1
P.6660956,,"Foc",41.356161,2.141804,,1,,
1.957,957,"Foneria",41.361099,2.138229,,0,P.6660957,1
E.95701,,"Foneria",41.360606,2.138368,,2,P.6660957,1
E.95702,,"Mercat de la Marina",41.360792,2.138773,,2,P.6660957,1
P.6660957,,"Foneria",41.361099,2.138229,,1,,
1.1137,1137,"Casa de l'Aigua",41.451278,2.18484,,0,P.6661137,1
E.113701,,"Aiguablava",41.451261,2.185175,,2,P.6661137,1
P.6661137,,"Casa de l'Aigua",41.451278,2.18484,,1,,
1.1138,1138,"Torre Baró | Vallbona",41.459196,2.179884,,0,P.6661138,1
E.113801,,"Avinguda Escolapi Càncer",41.459296,2.180707,,2,P.6661138,1
E.113811,,"Sant Feliu de Codines",41.459306,2.179257,,2,P.6661138,1
P.6661138,,"Torre Baró | Vallbona",41.459196,2.179884,,1,,
1.1139,1139,"Ciutat Meridiana",41.460808,2.17465,,0,P.6661139,1
E.113901,,"Avinguda Rasos de Peguera",41.460895,2.174697,,2,P.6661139,1
P.6661139,,"Ciutat Meridiana",41.460808,2.17465,,1,,
1.1140,1140,"Can Cuiàs",41.462413,2.173059,,0,P.6661140,1
E.114001,,"Circumval·lació",41.462678,2.172743,,2,P.6661140,1
E.114011,,"Les Fustes",41.462831,2.173142,,2,P.6661140,1
P.6661140,,"Can Cuiàs",41.462413,2.173059,,1,,
1.9902,9902,"Parc de Montjuïc",41.368956,2.163269,,0,P.6669902,1
E.990201,,"Avinguda Miramar",41.368845,2.163094,,2,P.6669902,1
P.6669902,,"Parc de Montjuïc",41.368956,2.163269,,1,,
2.1,1,"Almogàvers - Àvila",41.39948,2.19314,,0,,0
2.2,2,"Av Icària - Àlaba",41.393104,2.198985,,0,,0
2.3,3,"València - Muntaner",41.388546,2.157891,,0,,0
2.4,4,"Mallorca - Balmes",41.391021,2.158732,,0,,0
2.5,5,"Universitat Central",41.387065,2.164855,,0,,0
2.6,6,"Pl Universitat - Balmes",41.386942,2.164698,,0,,0
2.7,7,"Pl Universitat",41.385907,2.16331,,0,,0
2.8,8,"Pl de Carles Buïgas",41.371045,2.150118,,0,,0
2.12,12,"Llinars - Santander",41.434755,2.207305,,0,,0
2.13,13,"Sas - Claramunt",41.437591,2.204183,,0,,0
2.15,15,"Via Favència - Almagro",41.44391,2.172055,,0,,0
2.16,16,"Via Favència - Castor",41.44269,2.170198,,0,,0
2.17,17,"Les Torres - Mina de la Ciutat",41.446651,2.17161,,0,,0
2.18,18,"Antonio Machado - E M de Natació",41.444295,2.170505,,0,,0
2.20,20,"Antonio Machado - Artesania",41.444385,2.170821,,0,,0
2.21,21,"Palau Reial",41.385593,2.116137,,0,,0
2.22,22,"Av República Argentina - Vallcarca",41.411365,2.143973,,0,,0
2.24,24,"Ronda Guineueta Vella - Barri Canyelles",41.444325,2.165219,,0,,0
2.25,25,"Ronda Guineueta Vella - Escola Deià",41.444835,2.167787,,0,,0
2.27,27,"Metro Marina",41.394436,2.187549,,0,,0
2.28,28,"Ciutat Sanitària de la Vall d'Hebron",41.426892,2.142992,,0,,0
2.29,29,"Sant Genís dels Agudells - Natzaret",41.429197,2.13805,,0,,0
2.30,30,"Sant Genís dels Agudells",41.42943,2.138145,,0,,0
2.31,31,"Llull - Àlaba",41.39602,2.19552,,0,,0
2.34,34,"Av Icària - Av Bogatell",41.393025,2.199318,,0,,0
2.36,36,"Metro Marina",41.394153,2.187545,,0,,0
2.38,38,"Marina - Ribes",41.397584,2.183099,,0,,0
2.39,39,"Pg de Sant Joan - Alí-Bei",41.392553,2.178787,,0,,0
2.41,41,"Diagonal - Doctor Fleming",41.39071,2.136322,,0,,0
2.42,42,"Diagonal - L'Illa Diagonal",41.389572,2.133391,,0,,0
2.43,43,"Pg  Zona Franca - Foneria",41.360039,2.138925,,0,,0
2.44,44,"Pg  Zona Franca - Alts Forns",41.358062,2.14069,,0,,0
2.47,47,"Parc Sanitari Pere Virgili",41.416267,2.141929,,0,,0
2.48,48,"Palau d'Esports de la Vall d'Hebron",41.42792,2.144165,,0,,0
2.51,51,"Sant Genís dels Agudells - Arquitectura",41.429384,2.138266,,0,,0
2.52,52,"Pg  Vall d'Hebron - Metro Montbau",41.430145,2.144497,,0,,0
2.54,54,"Comte d'Urgell - Aragó",41.384259,2.155885,,0,,0
2.55,55,"Pg de Gràcia - Aragó",41.3918,2.165503,,0,,0
2.56,56,"Casanova - Aragó",41.386039,2.158017,,0,,0
2.58,58,"Aribau - Aragó",41.387695,2.160348,,0,,0
2.59,59,"Entença - Consell de Cent",41.380083,2.150088,,0,,0
2.60,60,"Llúria - Aragó",41.393898,2.167925,,0,,0
2.61,61,"Independència - Consell de Cent",41.406346,2.185374,,0,,0
2.62,62,"Dos de Maig - València",41.406567,2.182588,,0,,0
2.63,63,"Pg de Sant Joan - Aragó",41.397386,2.172391,,0,,0
2.64,64,"Montserrat Roig - Lleó Fontova",41.362755,2.061772,,0,,0
2.65,65,"Josep Tarradellas - Francesc Macià",41.391603,2.143749,,0,,0
2.69,69,"Pg Sant Gervasi - Mas Yebra",41.412101,2.13819,,0,,0
2.70,70,"Terré - Pl de Benet XV",41.406002,2.120596,,0,,0
2.71,71,"Ronda de Dalt - Bellesguard",41.410479,2.126513,,0,,0
2.73,73,"Josep Garí - Collserola",41.415725,2.135586,,0,,0
2.74,74,"Benedetti - Ronda de Dalt",41.408844,2.124256,,0,,0
2.79,79,"Aeroport - Terminal T2 AB",41.30293,2.075946,,0,,0
2.80,80,"Aeroport - Terminal T2 B",41.30415,2.079326,,0,,0
2.81,81,"Aeroport - Terminal T2 C",41.305032,2.081875,,0,,0
2.82,82,"Tamariu - Palamós",41.449496,2.18543,,0,,0
2.83,83,"Via Favència - Aiguablava",41.446461,2.18056,,0,,0
2.84,84,"Av Santa Coloma - Francesc Moragas",41.448185,2.207882,,0,,0
2.85,85,"Av Santa Coloma - Mossèn Jacint Verdaguer",41.445019,2.209515,,0,,0
2.88,88,"Av Torreblanca - Av Generalitat",41.37607,2.056132,,0,,0
2.89,89,"Av Torreblanca - Pla del Vent",41.379198,2.061323,,0,,0
2.90,90,"Av Torreblanca - Rubió i Tudurí",41.377765,2.058948,,0,,0
2.91,91,"Av Granvia - Miguel Hernández",41.352763,2.120214,,0,,0
2.92,92,"Pl Europa",41.358353,2.126577,,0,,0
2.94,94,"Diagonal - Balmes",41.395404,2.155382,,0,,0
2.95,95,"Gran Via - Balmes",41.387854,2.165804,,0,,0
2.96,96,"Mitre - Muntaner",41.403095,2.138465,,0,,0
2.97,97,"Pg Sant Gervasi - Folgueroles",41.409499,2.135339,,0,,0
2.98,98,"València - Balmes",41.390198,2.160081,,0,,0
2.99,99,"Mitre - Saragossa",41.405398,2.14347,,0,,0
2.100,100,"París - Enric Granados",41.393874,2.153649,,0,,0
2.103,103,"Bisbe Català - Pl Pedralbes",41.396058,2.114509,,0,,0
2.105,105,"Guipúscoa - Bac de Roda",41.41497,2.195547,,0,,0
2.106,106,"Guipúscoa - Bac de Roda",41.414919,2.194885,,0,,0
2.108,108,"Pl Espanya - FGC",41.374395,2.147976,,0,,0
2.109,109,"Numància - Marquès de Sentmenat",41.384607,2.137456,,0,,0
2.110,110,"Nicaragua - Josep Tarradellas",41.382902,2.141836,,0,,0
2.111,111,"Pl del Bosc",41.469589,2.183906,,0,,0
2.112,112,"Bifurcació - del Molí",41.471805,2.183416,,0,,0
2.113,113,"Bifurcació - Pl Sant Joan",41.469672,2.180891,,0,,0
2.114,114,"Bifurcació - Ctra Nacional 152",41.46694,2.178884,,0,,0
2.115,115,"Ctra Nacional 152 - Bifurcació",41.467071,2.178991,,0,,0
2.116,116,"Mina - del Molí",41.469157,2.180794,,0,,0
2.117,117,"Av de la Ribera - Pl de la Ribera",41.476795,2.189,,0,,0
2.118,118,"Bolívar - Ballester",41.409254,2.147712,,0,,0
2.119,119,"Av de Vallcarca - Pl Lesseps",41.408598,2.148951,,0,,0
2.121,121,"Còrsega - Bailèn",41.401312,2.16559,,0,,0
2.122,122,"Pl Mossèn Jacint Verdaguer",41.398881,2.16861,,0,,0
2.123,123,"Arc de Triomf",41.391274,2.178718,,0,,0
2.125,125,"Metro Tetuan",41.39379,2.174219,,0,,0
2.126,126,"Mercat de la Concepció",41.396988,2.169109,,0,,0
2.127,127,"Segre - Pl de Can Fabra",41.434573,2.192089,,0,,0
2.128,128,"Segre - Pl Orfila",41.43575,2.191468,,0,,0
2.129,129,"Av de Vallcarca - Ballester",41.409625,2.147621,,0,,0
2.130,130,"Pg  Lluís Companys - Parc de la Ciutadella",41.389501,2.183528,,0,,0
2.133,133,"Via Augusta - Pau Alcover",41.398431,2.125934,,0,,0
2.134,134,"Pg Bonanova",41.399943,2.124038,,0,,0
2.136,136,"Josep Tarradellas - Av de Sarrià",41.390958,2.144053,,0,,0
2.137,137,"Floridablanca - Viladomat",41.378171,2.158158,,0,,0
2.138,138,"València - Comte d'Urgell",41.38602,2.154537,,0,,0
2.139,139,"Mallorca - Comte d'Urgell",41.386791,2.153119,,0,,0
2.140,140,"Paral·lel - Ronda Sant Pau",41.375061,2.167171,,0,,0
2.146,146,"Rosselló - Bruc",41.398075,2.163744,,0,,0
2.147,147,"Diagonal - Bruc",41.398196,2.165846,,0,,0
2.148,148,"Ronda Sant Pere - Girona",41.390249,2.175962,,0,,0
2.149,149,"Gran Via - Llúria",41.39187,2.171675,,0,,0
2.151,151,"Av de Cornellà - Montesa",41.369641,2.081109,,0,,0
2.152,152,"Rambla dels Països Catalans - Ptge Formentera",41.491076,2.185283,,0,,0
2.154,154,"Pg Valldaura - Pg Andreu Nin",41.43928,2.182503,,0,,0
2.156,156,"Espronceda - Pl Islàndia",41.417606,2.188244,,0,,0
2.159,159,"Caracas - Potosí",41.443577,2.202809,,0,,0
2.160,160,"Badal - Canalejas",41.373489,2.131036,,0,,0
2.161,161,"Badal - Casteràs",41.375171,2.13041,,0,,0
2.162,162,"Sagrera - Múrcia",41.417652,2.191488,,0,,0
2.163,163,"Rambla Marina - Travessia Industrial",41.352445,2.10849,,0,,0
2.164,164,"Santa Rosalia - Besòs",41.421731,2.146808,,0,,0
2.165,165,"València - Villarroel",41.386831,2.155608,,0,,0
2.166,166,"Mallorca - Muntaner",41.389512,2.156721,,0,,0
2.167,167,"Gran Via - Casanova",41.38425,2.160999,,0,,0
2.168,168,"Diagonal - Francesc Macià",41.393118,2.146355,,0,,0
2.171,171,"París - Casanova",41.391101,2.149974,,0,,0
2.172,172,"Av. Pedralbes - Cavallers",41.393054,2.115241,,0,,0
2.173,173,"Villarroel - Aragó",41.385291,2.156551,,0,,0
2.174,174,"Pau Claris - Aragó",41.392751,2.166989,,0,,0
2.175,175,"Balmes - Aragó",41.38938,2.1624,,0,,0
2.178,178,"Bruc - Aragó",41.39464,2.169006,,0,,0
2.179,179,"Sants - Gayarre",41.375257,2.139662,,0,,0
2.180,180,"Creu Coberta - Pl Espanya",41.375222,2.147537,,0,,0
2.181,181,"Metro Hostafrancs",41.375281,2.144563,,0,,0
2.182,182,"Pg de Gràcia - Consell de Cent",41.391615,2.16543,,0,,0
2.183,183,"Gran Via - Ildefons Cerdà",41.365781,2.136445,,0,,0
2.185,185,"Av Granvia - Bloc I. Cerdà",41.361782,2.13196,,0,,0
2.187,187,"Escorial - Clínica Nostra Senyora del Remei",41.409804,2.159031,,0,,0
2.189,189,"Via Favència - Trinitat Nova",41.446825,2.184214,,0,,0
2.191,191,"Bac de Roda - Cristóbal de Moura",41.408152,2.203269,,0,,0
2.193,193,"Rambla Prim - Cristóbal de Moura",41.416156,2.21244,,0,,0
2.195,195,"Can Caralleu",41.401969,2.11163,,0,,0
2.196,196,"General Vives - Pg de Santa Eulàlia",41.403386,2.116248,,0,,0
2.198,198,"Camí de Can Caralleu - Ronda de Dalt",41.401837,2.114363,,0,,0
2.199,199,"Pg  Zona Franca - Cisell",41.354396,2.142976,,0,,0
2.200,200,"Pg  Zona Franca - Motors",41.351695,2.145339,,0,,0
2.202,202,"Via Augusta - Calvet",41.39772,2.139095,,0,,0
2.203,203,"Av Indústria - Severo Ochoa",41.384558,2.072482,,0,,0
2.204,204,"Floridablanca - Av Mistral",41.376577,2.156056,,0,,0
2.206,206,"Gran Via - Calàbria",41.38012,2.155512,,0,,0
2.207,207,"Mallorca - Viladomat",41.384497,2.150058,,0,,0
2.208,208,"París - Calàbria",41.386985,2.144499,,0,,0
2.209,209,"Paral·lel - Marquès de Campo Sagrado",41.375096,2.16372,,0,,0
2.211,211,"Via Laietana - Comtal",41.387092,2.174463,,0,,0
2.212,212,"Indústria - Independència",41.412607,2.178475,,0,,0
2.213,213,"Pg de Sant Joan - Còrsega",41.401504,2.167162,,0,,0
2.214,214,"Casanova - Hospital Clínic",41.390359,2.152694,,0,,0
2.216,216,"Padilla - Rosselló",41.407334,2.175125,,0,,0
2.217,217,"Josep Tarradellas - Rosselló",41.382888,2.142701,,0,,0
2.218,218,"Torrent de l'Olla - Penedès",41.400915,2.158727,,0,,0
2.219,219,"Torrent de l'Olla - Còrsega",41.398688,2.160995,,0,,0
2.220,220,"Independència - Freser",41.410809,2.179503,,0,,0
2.221,221,"Balmes - Rosselló",41.39356,2.156883,,0,,0
2.222,222,"Aribau - Còrsega",41.392249,2.154319,,0,,0
2.224,224,"Dos de Maig - Indústria",41.41083,2.176939,,0,,0
2.226,226,"Pau Claris - Gran Via",41.390946,2.169374,,0,,0
2.227,227,"Marina - Ausiàs Marc",41.397652,2.183325,,0,,0
2.228,228,"Bruc - Gran Via",41.39181,2.172762,,0,,0
2.230,230,"Llúria - Urquinaona",41.390187,2.172837,,0,,0
2.231,231,"Ronda Guineueta Vella - Antonio Machado",41.441537,2.162056,,0,,0
2.232,232,"Pl Karl Marx - Pg  Vall d'Hebron",41.440677,2.161721,,0,,0
2.233,233,"Sant Antoni Maria Claret - Independència",41.413257,2.176982,,0,,0
2.234,234,"Mallorca - Dos de Maig",41.407311,2.180417,,0,,0
2.235,235,"Consell de Cent - Cartagena",41.403777,2.182747,,0,,0
2.236,236,"Aragó - Enamorats",41.405834,2.182955,,0,,0
2.237,237,"Diagonal - Pl Reina Maria Cristina",41.388444,2.127386,,0,,0
2.238,238,"Sinaí",41.424848,2.138359,,0,,0
2.239,239,"Manuel Girona - Carles III",41.392127,2.128123,,0,,0
2.241,241,"Arquitectura - Àngel Marquès",41.429315,2.141186,,0,,0
2.243,243,"Av Gaudí - Castillejos",41.410841,2.173773,,0,,0
2.244,244,"València - Padilla",41.404688,2.179403,,0,,0
2.245,245,"Pl de la Font Castellana",41.415164,2.166882,,0,,0
2.246,246,"Camèlies - Abd el-Kader",41.413864,2.164368,,0,,0
2.248,248,"Cardenal Reig - Pintor Ribalta",41.3779,2.11579,,0,,0
2.249,249,"Pg Maragall - Borbó",41.425726,2.175451,,0,,0
2.250,250,"Diagonal - Manuel Ballbé",41.384044,2.110017,,0,,0
2.251,251,"Diagonal - Parc de Cervantes",41.383631,2.108386,,0,,0
2.252,252,"Portal de la Pau",41.376695,2.178541,,0,,0
2.253,253,"Moll de la Fusta",41.378845,2.180278,,0,,0
2.254,254,"Pg  Colom - Via Laietana",41.380449,2.181573,,0,,0
2.255,255,"Pg  Colom - Via Laietana",41.380454,2.181475,,0,,0
2.256,256,"Moll de la Fusta",41.379098,2.180379,,0,,0
2.257,257,"Portal de la Pau",41.3767,2.178442,,0,,0
2.258,258,"Pg  Santa Coloma - Pg  Torras i Bages",41.444686,2.189161,,0,,0
2.259,259,"Ctra Nacional 152 - Av l'Alzinar",41.46091,2.183157,,0,,0
2.261,261,"Pg Sant Gervasi - Pl John F Kennedy",41.410353,2.137659,,0,,0
2.262,262,"Av República Argentina - Baixada Gomis",41.411609,2.142436,,0,,0
2.263,263,"Av de Madrid - Arizala",41.377042,2.125151,,0,,0
2.264,264,"Av Ferrer i Guàrdia - Mèxic",41.371168,2.149875,,0,,0
2.265,265,"Poble Espanyol",41.369413,2.146283,,0,,0
2.266,266,"Gran Vista - Doctor Bové",41.419148,2.158198,,0,,0
2.267,267,"Doctor Bové - Penyal",41.421063,2.162704,,0,,0
2.268,268,"Doctor Bové - Gran Vista",41.419353,2.158382,,0,,0
2.269,269,"Doctor Bové - Ptge de la  Cadernera",41.420652,2.160419,,0,,0
2.270,270,"Doctor Bové - Baixada Passerell",41.420639,2.160178,,0,,0
2.271,271,"Doctor Bové - Conca de Tremp",41.419021,2.157833,,0,,0
2.272,272,"Doctor Bové - Pg de la Font de la Mulassa",41.420911,2.163092,,0,,0
2.273,273,"Hospital del Mar",41.38358,2.195021,,0,,0
2.276,276,"Av Barcelona - Marquès de Monistrol",41.368876,2.071416,,0,,0
2.277,277,"Manuel Girona - Capità Arenas",41.391352,2.125005,,0,,0
2.278,278,"Poble Sec",41.371526,2.160474,,0,,0
2.279,279,"França Xica - Concòrdia",41.372163,2.159497,,0,,0
2.280,280,"França Xica - Grases",41.372081,2.156342,,0,,0
2.281,281,"Pg de Gràcia - Diagonal",41.39614,2.160125,,0,,0
2.282,282,"Casanova - Diagonal",41.393181,2.148577,,0,,0
2.284,284,"Lepant - Diagonal",41.40242,2.179261,,0,,0
2.285,285,"Muntaner - Diagonal",41.394812,2.148471,,0,,0
2.286,286,"Via Augusta - Diagonal",41.396421,2.155036,,0,,0
2.287,287,"Calvet - Diagonal",41.39346,2.144983,,0,,0
2.289,289,"Balmes - Diagonal",41.395776,2.154022,,0,,0
2.291,291,"Carles III - Mejía Lequerica",41.38524,2.127519,,0,,0
2.293,293,"Av Joan XXIII - Pl Pius XII",41.385641,2.122614,,0,,0
2.294,294,"González Tablas - Manuel Ballbé",41.386428,2.107537,,0,,0
2.295,295,"González Tablas - Av de l'Exèrcit",41.385455,2.109486,,0,,0
2.296,296,"Av Doctor Marañón - Baldiri i Reixac",41.382055,2.113965,,0,,0
2.297,297,"Av Pedralbes - Pg  Manuel Girona",41.390002,2.118936,,0,,0
2.300,300,"Pujades - Ciutat de Granada",41.39878,2.196767,,0,,0
2.306,306,"Pg Verdum - Doctor Pi i Molist",41.435869,2.172375,,0,,0
2.307,307,"Av Gaudí",41.410032,2.175154,,0,,0
2.308,308,"València - Dos de Maig",41.406488,2.181804,,0,,0
2.309,309,"Diagonal - Complex Esportiu Universitari",41.383268,2.107874,,0,,0
2.310,310,"Diagonal - Av Doctor Marañón",41.384222,2.111612,,0,,0
2.312,312,"Comte d'Urgell - Gran Via",41.382668,2.157998,,0,,0
2.313,313,"Pg de Gràcia - Gran Via",41.390138,2.16756,,0,,0
2.315,315,"Pg  de Sant Joan - Diputació",41.395419,2.174671,,0,,0
2.316,316,"Aribau - Gran Via",41.386042,2.162533,,0,,0
2.317,317,"Pl Tetuan - Pg de Sant Joan",41.395471,2.175272,,0,,0
2.318,318,"Padilla - Gran Via",41.401357,2.182958,,0,,0
2.319,319,"Entença - Gran Via",41.378374,2.15235,,0,,0
2.320,320,"Tarragona - Parc de Joan Miró",41.376704,2.147419,,0,,0
2.321,321,"Llúria - Gran Via",41.392009,2.170423,,0,,0
2.324,324,"Ctra de Collblanc - Albéniz",41.375966,2.105988,,0,,0
2.327,327,"Pare Manyanet - Josep Soldevila",41.428153,2.194257,,0,,0
2.328,328,"Meridiana - Pegaso",41.425401,2.18649,,0,,0
2.329,329,"Av Pi i Margall - Av Catalunya",41.432803,2.215877,,0,,0
2.330,330,"Pg de Santa Eulàlia - Can Caralleu",41.403827,2.115349,,0,,0
2.334,334,"Av Granvia - Ctra Antiga del Prat",41.347448,2.11336,,0,,0
2.335,335,"Gran Capità - Av de l'Exèrcit",41.386981,2.111589,,0,,0
2.336,336,"Balmes - Via Augusta",41.40086,2.147888,,0,,0
2.337,337,"València - Muntanya",41.411226,2.188089,,0,,0
2.341,341,"Aragó - Metro Clot",41.409179,2.187879,,0,,0
2.342,342,"Cementiri de l'Est",41.394275,2.202388,,0,,0
2.343,343,"Pl de Sant Jordi",41.366328,2.144752,,0,,0
2.344,344,"Piscines Picornell - Museu Nacional",41.366087,2.153154,,0,,0
2.345,345,"Av de l'Estadi - Estadi Olímpic",41.366002,2.154544,,0,,0
2.346,346,"Estadi Olímpic",41.366164,2.155317,,0,,0
2.347,347,"Piscines Picornell - Museu Nacional",41.366539,2.151718,,0,,0
2.348,348,"Av Estadi - INEFC",41.365641,2.147886,,0,,0
2.349,349,"Av Estadi - INEFC",41.36553,2.146807,,0,,0
2.350,350,"Av de Vallcarca - Baixada de la Glòria",41.410385,2.14701,,0,,0
2.352,352,"Av de Sant Ildefons - Cirerer",41.365512,2.083071,,0,,0
2.353,353,"Av del Parc - Pl Catalunya",41.359655,2.077241,,0,,0
2.354,354,"Av del Parc - Ptge de Les Delícies",41.359391,2.074945,,0,,0
2.355,355,"Av del Parc - Mossèn Joaquim Palet",41.359194,2.072941,,0,,0
2.357,357,"Av dels Alps - Tanatori",41.355056,2.077755,,0,,0
2.358,358,"Av dels Alps - Ctra d'Esplugues",41.356433,2.073255,,0,,0
2.360,360,"Sant Adrià - Formiga",41.435793,2.201628,,0,,0
2.362,362,"Meridiana - Escòcia",41.429143,2.183648,,0,,0
2.363,363,"Felip II - Pl del Congrés",41.425887,2.179847,,0,,0
2.364,364,"Felip II - Arnau d'Oms",41.427247,2.178064,,0,,0
2.365,365,"Lletres - Dante Alighieri",41.427936,2.157915,,0,,0
2.366,366,"Pl de l'Estatut",41.430511,2.155255,,0,,0
2.368,368,"Trav de Dalt - Torrent de les Flors",41.41046,2.156636,,0,,0
2.369,369,"Pi i Margall - Escorial",41.406654,2.163165,,0,,0
2.370,370,"Pg Maragall - Greco",41.426768,2.171691,,0,,0
2.371,371,"Pg Maragall - Sabastida",41.427479,2.168463,,0,,0
2.372,372,"Av Catalunya - Àngel Guimerà",41.496029,2.183353,,0,,0
2.373,373,"Diagonal - Entença",41.390536,2.137183,,0,,0
2.374,374,"Ctra d'Horta - Pg de Valldaura",41.437274,2.153559,,0,,0
2.375,375,"Josep Tarradellas - Av.Sarrià",41.389507,2.143136,,0,,0
2.376,376,"Les Corts - Pl Dr Ignasi Barraquer",41.390115,2.140634,,0,,0
2.377,377,"Paral·lel - Rocafort",41.375108,2.1594,,0,,0
2.378,378,"Av de Roma - Entença",41.382013,2.146274,,0,,0
2.380,380,"València - Entença",41.381048,2.147948,,0,,0
2.381,381,"Clot - Biscaia",41.413988,2.190631,,0,,0
2.382,382,"Pujades - Espronceda",41.405584,2.205703,,0,,0
2.383,383,"Gran Via - Espronceda",41.411677,2.197643,,0,,0
2.385,385,"Gran Via - Bilbao",41.409045,2.194762,,0,,0
2.387,387,"Clot - Pont de Bac de Roda",41.414917,2.190514,,0,,0
2.388,388,"Saldes",41.428945,2.134501,,0,,0
2.389,389,"Pl Espanya - FGC",41.374291,2.148575,,0,,0
2.390,390,"Tarragona - Pl Espanya",41.37592,2.148445,,0,,0
2.391,391,"Metro Hostafrancs",41.375153,2.144895,,0,,0
2.392,392,"Creu Coberta - Pl Espanya",41.375102,2.147507,,0,,0
2.393,393,"Av Reina Maria Cristina - Pl Espanya",41.373857,2.150082,,0,,0
2.394,394,"Tarragona - Pl Espanya",41.375706,2.148726,,0,,0
2.395,395,"Marquès de Sentmenat - Equador",41.385421,2.141561,,0,,0
2.396,396,"Berlín - Numància",41.383507,2.139746,,0,,0
2.397,397,"Josep Tarradellas - Entença",41.386403,2.142477,,0,,0
2.398,398,"Guipúscoa - Julián Besteiro",41.416481,2.19757,,0,,0
2.399,399,"Llull - Selva de Mar",41.407024,2.210207,,0,,0
2.400,400,"Centre Mèdic Delfos",41.413423,2.142903,,0,,0
2.402,402,"Dante Alighieri - Santa Joana d'Arc",41.427878,2.158823,,0,,0
2.406,406,"Pg Valldaura - Rambla Caçador",41.43863,2.173479,,0,,0
2.407,407,"Av Indústria - Carretera Reial",41.380429,2.066954,,0,,0
2.408,408,"Av Indústria - Salvador Espriu",41.381567,2.068519,,0,,0
2.409,409,"Sagrera - Parc de la Pegaso",41.426317,2.190916,,0,,0
2.410,410,"Pl Eivissa - Horta",41.430482,2.161101,,0,,0
2.411,411,"Tajo - Metro Horta",41.429541,2.160865,,0,,0
2.412,412,"Carles III - Les Corts",41.381833,2.128008,,0,,0
2.413,413,"Av Litoral - Trelawny",41.386258,2.194843,,0,,0
2.420,420,"Can Clos",41.360712,2.147294,,0,,0
2.421,421,"Gran Via - Farell",41.371993,2.14495,,0,,0
2.422,422,"Via Sant Antoni Abat",41.35656,2.150945,,0,,0
2.423,423,"Gran Vista - Turó de la Rovira",41.420212,2.164008,,0,,0
2.424,424,"Garriga i Roca - Camil Oliveras",41.421236,2.169714,,0,,0
2.425,425,"Montserrat de Casanovas - Parc del Guinardó",41.423177,2.169516,,0,,0
2.426,426,"Montserrat de Casanovas - Ptge Pedrell",41.424,2.167981,,0,,0
2.427,427,"Pedrell - Canonge Almera",41.423884,2.162029,,0,,0
2.428,428,"Pg  Valldaura - Fabra i Puig",41.439197,2.16576,,0,,0
2.430,430,"Parc Turó de la Peira",41.433576,2.163193,,0,,0
2.431,431,"Meridiana - Dublín",41.427451,2.18515,,0,,0
2.432,432,"Meridiana - Parc de Can Dragó",41.43563,2.183798,,0,,0
2.435,435,"Arenys - Rossell",41.42276,2.145477,,0,,0
2.436,436,"Arenys - Fastenrath",41.422048,2.143006,,0,,0
2.437,437,"Pl del Nen de la Rutlla",41.41858,2.171943,,0,,0
2.440,440,"Via Júlia - Sant Francesc Xavier",41.441594,2.177585,,0,,0
2.441,441,"Gran Vista - Pl de la Mitja Lluna",41.420126,2.164919,,0,,0
2.442,442,"Comte d'Urgell - Floridablanca",41.380886,2.160363,,0,,0
2.444,444,"Entença - Floridablanca",41.37565,2.155956,,0,,0
2.445,445,"Pedrell - Ptge Gabarnet",41.423111,2.15869,,0,,0
2.446,446,"Montserrat de Casanovas - Pg Font d'En Fargas",41.423711,2.164955,,0,,0
2.447,447,"Verge de Montserrat - França",41.41483,2.164891,,0,,0
2.449,449,"Pg  Zona Franca - Ctra del Prat",41.36207,2.13745,,0,,0
2.450,450,"Pg  Zona Franca - Foneria",41.359573,2.139622,,0,,0
2.453,453,"Via Barcino - Foradada",41.452811,2.193779,,0,,0
2.454,454,"Sagrera - Martí Molins",41.423025,2.191082,,0,,0
2.455,455,"Meridiana - La Sagrera",41.421937,2.18676,,0,,0
2.458,458,"Pl Pius XII",41.386964,2.121553,,0,,0
2.459,459,"Verge de Montserrat - Gènova",41.416499,2.170129,,0,,0
2.460,460,"Verge de Montserrat - Francesc Alegre",41.415726,2.16773,,0,,0
2.464,464,"Gran Via - Bac de Roda",41.411085,2.197428,,0,,0
2.466,466,"Gran Via - Pl dels Porxos",41.413905,2.200618,,0,,0
2.469,469,"Rambla Prim - Ferrer Bassa",41.415112,2.214694,,0,,0
2.470,470,"Jacint Verdaguer - Estudis TV3",41.373479,2.068662,,0,,0
2.471,471,"Aiguablava - Via Favència",41.447098,2.180495,,0,,0
2.472,472,"Pl Europa",41.357419,2.126404,,0,,0
2.475,475,"Pg Maragall - Dante Alighieri",41.428688,2.162847,,0,,0
2.476,476,"Rambla del Carmel",41.426037,2.158313,,0,,0
2.477,477,"Rambla del Carmel - Dante Alighieri",41.4272,2.157241,,0,,0
2.478,478,"Av Vallcarca - Centre Mèdic Delfos",41.41401,2.143119,,0,,0
2.479,479,"Av Madrid - Carles III",41.378931,2.128468,,0,,0
2.481,481,"Maria Cristina - Carles III",41.389326,2.128028,,0,,0
2.482,482,"Les Corts - Maternitat",41.381215,2.126648,,0,,0
2.483,483,"Diagonal - Numància",41.389513,2.131617,,0,,0
2.484,484,"Les Corts - Vallespir",41.385515,2.132725,,0,,0
2.485,485,"Mercat de Les Corts",41.383691,2.129908,,0,,0
2.487,487,"Mitre - Prat de la Riba",41.393274,2.131301,,0,,0
2.488,488,"Pl del Centre",41.381993,2.135728,,0,,0
2.491,491,"Diagonal - Joan Güell",41.388026,2.128122,,0,,0
2.492,492,"Diagonal - Av Joan XXIII",41.386932,2.122985,,0,,0
2.493,493,"Diagonal - Gran Via Carles III",41.387589,2.125577,,0,,0
2.494,494,"Diagonal - Gandesa",41.388443,2.128934,,0,,0
2.495,495,"Verge de Montserrat - Cartagena",41.416051,2.169892,,0,,0
2.496,496,"Pg Torras i Bages - Residència",41.439415,2.190909,,0,,0
2.497,497,"Alcàntara - Garigliano",41.445521,2.17243,,0,,0
2.499,499,"Gran Via - Padilla",41.400301,2.182905,,0,,0
2.501,501,"Colònia Tibidabo",41.420798,2.119336,,0,,0
2.502,502,"Diagonal - Girona",41.398164,2.166346,,0,,0
2.503,503,"Metro Tetuan",41.393762,2.173666,,0,,0
2.504,504,"Mallorca - Girona",41.398062,2.168071,,0,,0
2.505,505,"Trav de Dalt - La Granja",41.408841,2.153526,,0,,0
2.506,506,"Biscaia - Ctra de Mataró",41.423547,2.210998,,0,,0
2.508,508,"Pl dels Indians",41.42356,2.182623,,0,,0
2.509,509,"Pl dels Indians",41.4236,2.182839,,0,,0
2.510,510,"Meridiana - La Sagrera",41.421402,2.18709,,0,,0
2.511,511,"Meridiana - Cardenal Tedeschini",41.42502,2.186341,,0,,0
2.512,512,"Av de Sarrià - Mestre Villa",41.392216,2.132932,,0,,0
2.515,515,"Balmes - Pàdua",41.40305,2.143959,,0,,0
2.516,516,"Carles III - Numància",41.391686,2.129244,,0,,0
2.517,517,"Balmes - Pl John F. Kennedy",41.409236,2.137263,,0,,0
2.519,519,"Balmes - Pl Joaquim Folguera",41.40544,2.139226,,0,,0
2.520,520,"Av de Sarrià - Diagonal",41.391592,2.136995,,0,,0
2.522,522,"Via Augusta - Pl Orient",41.397684,2.128363,,0,,0
2.523,523,"Via Augusta - Ronda General Mitre",41.397695,2.132077,,0,,0
2.524,524,"Diagonal - Ganduxer",41.39165,2.140023,,0,,0
2.525,525,"Via Augusta - Modolell",41.397855,2.136675,,0,,0
2.526,526,"Ganduxer - Alacant",41.400186,2.133574,,0,,0
2.527,527,"Ganduxer - Emancipació",41.403153,2.131277,,0,,0
2.528,528,"Via Augusta - Ronda General Mitre",41.397699,2.133682,,0,,0
2.529,529,"Mitre - Mandri",41.40065,2.135367,,0,,0
2.531,531,"Pg Bonanova - Anglí",41.400977,2.123447,,0,,0
2.532,532,"Pg Bonanova - Escoles Pies",41.403366,2.127723,,0,,0
2.533,533,"Av de Vallcarca - Gomis",41.411882,2.1444,,0,,0
2.534,534,"Pl Alfonso Comín - Av República Argentina",41.414496,2.138262,,0,,0
2.536,536,"Av Barcelona - Mare de Déu de Montserrat",41.368082,2.067861,,0,,0
2.540,540,"Gran Via - Agricultura",41.415968,2.20337,,0,,0
2.541,541,"Guipúscoa - Treball",41.41816,2.199804,,0,,0
2.542,542,"Guipúscoa - Cantàbria",41.420063,2.201754,,0,,0
2.544,544,"Gran Vista - Doctor Bové",41.419004,2.158039,,0,,0
2.545,545,"Gran Vista - IES Ferran Tallada",41.420791,2.161667,,0,,0
2.546,546,"IES Ferran Tallada",41.420692,2.161841,,0,,0
2.547,547,"Metro Zona Universitària",41.384729,2.111443,,0,,0
2.548,548,"Zona Universitària - Escola A E Empresarials",41.384695,2.111024,,0,,0
2.549,549,"Av d'Esplugues - Av Pearson",41.392138,2.111625,,0,,0
2.550,550,"Av d'Esplugues - Dr Joaquim Albarrán",41.38994,2.109029,,0,,0
2.552,552,"Av d'Esplugues - Eduard Toldrà",41.387881,2.106576,,0,,0
2.554,554,"Sor Eulàlia d'Anzizu - González Tablas",41.387035,2.108666,,0,,0
2.556,556,"Zona Universitària",41.384595,2.110914,,0,,0
2.557,557,"Lesseps - Av Príncep d'Asturies",41.406118,2.149836,,0,,0
2.559,559,"Pl Molina",41.401407,2.147377,,0,,0
2.560,560,"Villarroel - Gran Via",41.38329,2.159201,,0,,0
2.561,561,"Pg de Gràcia - Casp",41.388912,2.169251,,0,,0
2.562,562,"Balmes - Gran Via",41.387613,2.164736,,0,,0
2.564,564,"Muntaner - Diputació",41.38614,2.159951,,0,,0
2.565,565,"Rambla Prim - Bernat Metge",41.418386,2.210326,,0,,0
2.567,567,"Bilbao - Andrade",41.410073,2.193691,,0,,0
2.569,569,"Extremadura - Pl Clementina Arderiu",41.422487,2.211272,,0,,0
2.570,570,"Lepant - Plaça de Toros Monumental",41.400444,2.181824,,0,,0
2.571,571,"Sant Pere d'Abanto - Moianès",41.371723,2.142975,,0,,0
2.572,572,"Besòs - Verneda",41.422294,2.210391,,0,,0
2.574,574,"Rambla Prim - Andrade",41.42001,2.207257,,0,,0
2.576,576,"Roger de Flor - Gran Via",41.39524,2.177435,,0,,0
2.577,577,"Metro Pg de Gràcia",41.389919,2.16752,,0,,0
2.578,578,"Bac de Roda - Bolívia",41.409763,2.201133,,0,,0
2.581,581,"Rambla Marina - Ermita de Bellvitge",41.349912,2.11121,,0,,0
2.584,584,"Metro Pl de Sants",41.375312,2.13681,,0,,0
2.585,585,"Av Remolar - Riu Tajo",41.317882,2.091617,,0,,0
2.586,586,"Pg  Valldaura - Mercat Guineueta",41.439012,2.169728,,0,,0
2.588,588,"Sant Adrià - Bon Pastor",41.436527,2.208297,,0,,0
2.589,589,"Lima - Sas",41.439208,2.204819,,0,,0
2.590,590,"Laureà Miró - Sant Llorenç",41.37709,2.092859,,0,,0
2.591,591,"Av d'Esplugues - Hospital Sant Joan de Déu",41.384924,2.103973,,0,,0
2.592,592,"Laureà Miró - Josep Campreciós",41.377485,2.086646,,0,,0
2.594,594,"Av Catalunya - Puigcerdà",41.495993,2.183456,,0,,0
2.597,597,"Ctra de L'Hospitalet - Av Fama",41.35382,2.079924,,0,,0
2.598,598,"Ctra de L'Hospitalet - Parc de Can Mercader",41.355783,2.084528,,0,,0
2.603,603,"Lima - Ciutat d'Asunción",41.439198,2.200792,,0,,0
2.604,604,"Pi i Margall - Pl Joanic",41.406378,2.163343,,0,,0
2.605,605,"Pg Vall d'Hebron - Av de Vallcarca",41.419343,2.139821,,0,,0
2.607,607,"Pg Vall d'Hebron - Velòdrom",41.43719,2.149735,,0,,0
2.609,609,"Rubió i Ors - Sant Isidre",41.352435,2.073082,,0,,0
2.610,610,"Santaló - Plató",41.399791,2.140717,,0,,0
2.611,611,"Pl d'Adrià",41.400995,2.13924,,0,,0
2.612,612,"Muntaner - Pl Bonanova",41.405851,2.134061,,0,,0
2.613,613,"Muntaner - Mitre",41.403055,2.13754,,0,,0
2.614,614,"Pg Vall d'Hebron - Av Can Marcet",41.435625,2.148345,,0,,0
2.615,615,"Campoamor - Av Estatut de Catalunya",41.435131,2.154373,,0,,0
2.616,616,"Campoamor - Rectoria",41.432919,2.158051,,0,,0
2.618,618,"Cantàbria - Pl del Ram de l'Aigua",41.42001,2.201162,,0,,0
2.619,619,"Cantàbria - Menorca",41.421558,2.198677,,0,,0
2.621,621,"Bac de Roda - Rambla de Guipúscoa",41.414991,2.194212,,0,,0
2.622,622,"Pg Bonanova",41.399968,2.123345,,0,,0
2.623,623,"Palamós - Sa Tuna",41.451491,2.187607,,0,,0
2.624,624,"Palamós - Sa Tuna",41.451128,2.187399,,0,,0
2.626,626,"Verge de Montserrat - La Bisbal",41.417988,2.171696,,0,,0
2.627,627,"Londres - Calàbria",41.388473,2.144036,,0,,0
2.628,628,"Berlín - Josep Tarradellas",41.384995,2.141957,,0,,0
2.629,629,"Numància - Berlín",41.382759,2.139451,,0,,0
2.630,630,"Av de Sarrià - Josep Tarradellas",41.390403,2.144807,,0,,0
2.632,632,"Fructuós Gelabert - Sant Martí de l'Erm",41.372779,2.067427,,0,,0
2.633,633,"Pg de Sant Joan - Indústria",41.402752,2.16476,,0,,0
2.634,634,"Lepant - Sant Antoni Maria Claret",41.408205,2.17157,,0,,0
2.635,635,"Dos de Maig - St Antoni M Claret",41.41157,2.175979,,0,,0
2.638,638,"Av de la Ribera - Mercat Municipal",41.484988,2.190971,,0,,0
2.639,639,"Av Mossèn Joaquim Castellví - Rbla Països Catalans",41.48751,2.1883,,0,,0
2.640,640,"Rambla dels Països Catalans - Torras i Bages",41.489369,2.186709,,0,,0
2.641,641,"Gran de Sant Andreu - Fabra i Puig",41.429289,2.190011,,0,,0
2.642,642,"La Miranda - Pl Catalunya",41.36002,2.078232,,0,,0
2.643,643,"Ctra d'Esplugues - Les Garrigues",41.367586,2.079059,,0,,0
2.644,644,"Av de Cornellà - Milà i Pí",41.371856,2.082928,,0,,0
2.645,645,"Av de Cornellà - Gall",41.369715,2.080805,,0,,0
2.647,647,"Rambla Marina - Av Granvia",41.349755,2.111914,,0,,0
2.648,648,"Rambla Marina - Polígon de Bellvitge",41.352532,2.109417,,0,,0
2.649,649,"Pg Maragall - Mossèn Josep  Bundó",41.427385,2.168007,,0,,0
2.650,650,"Pl Catalana - Mascaró",41.421847,2.173151,,0,,0
2.651,651,"Mercat Mare de Déu de la Mercè",41.430276,2.173212,,0,,0
2.652,652,"Pg Maragall - Amílcar",41.426497,2.172102,,0,,0
2.654,654,"Av Miramar - Fundació Joan Miró",41.36777,2.159774,,0,,0
2.655,655,"Av Miramar - Estació del Funicular",41.368876,2.162943,,0,,0
2.656,656,"Av Miramar - Escoles del Bosc",41.368937,2.161944,,0,,0
2.657,657,"Fundació Joan Miró - Pl Neptú",41.367861,2.159631,,0,,0
2.659,659,"Ctra d'Esplugues - Joan Maragall",41.356136,2.071682,,0,,0
2.661,661,"Aragó - Independència",41.407251,2.184862,,0,,0
2.662,662,"Marina - Pl dels Voluntaris",41.388373,2.195587,,0,,0
2.663,663,"Av Banús Baixa - Av Generalitat",41.44472,2.210815,,0,,0
2.666,666,"Av Banús Baixa - Camprodon",41.446324,2.214053,,0,,0
2.667,667,"Via Laietana - Correus",41.382449,2.18061,,0,,0
2.669,669,"Bucle Entrada Recinte Cementiri",41.466226,2.156184,,0,,0
2.670,670,"Agrupació número 1.2 - Jardí del Repòs",41.460527,2.158058,,0,,0
2.671,671,"Agrupacions números 8 i 14",41.458418,2.162563,,0,,0
2.673,673,"Agrupació número 12·13 - Fossar",41.459294,2.162849,,0,,0
2.674,674,"Agrupació número 14·15",41.460036,2.161238,,0,,0
2.675,675,"Agrupació número 15",41.460617,2.15949,,0,,0
2.676,676,"Agrupació número 16 entrada",41.462296,2.158923,,0,,0
2.678,678,"Agrupació número 16 sortida",41.462329,2.158825,,0,,0
2.680,680,"Bucle Sortida Recinte Cementiri",41.466161,2.156024,,0,,0
2.681,681,"Av Jordà - Idumea",41.426647,2.138919,,0,,0
2.682,682,"Cementiri de l'Est",41.394427,2.201577,,0,,0
2.683,683,"Natzaret - Lledoner",41.425867,2.136233,,0,,0
2.684,684,"Pl Sant Agustí",41.35784,2.155914,,0,,0
2.685,685,"Via Santa Eulàlia - Rda Litoral",41.353046,2.154313,,0,,0
2.686,686,"Pl de l'Esperança",41.353856,2.156254,,0,,0
2.687,687,"Pl de la Caritat",41.355387,2.155375,,0,,0
2.688,688,"Pl Sant Rafael",41.355068,2.153848,,0,,0
2.689,689,"Pl Sant Francesc",41.356288,2.157677,,0,,0
2.690,690,"Via Sant Jordi - Via Sant Sever",41.355205,2.157267,,0,,0
2.691,691,"Via Sant Jaume - Via Santíssima Trinitat",41.356268,2.15474,,0,,0
2.692,692,"Via Santíssima Trinitat",41.356014,2.151737,,0,,0
2.693,693,"Via Santíssima Trinitat - Pl Sant Agustí",41.35677,2.153971,,0,,0
2.694,694,"Via Sant Antoni Abat - Via Santíssima Trinitat",41.355557,2.151379,,0,,0
2.695,695,"Via Sant Jaume",41.356062,2.154188,,0,,0
2.696,696,"Via Sant Francesc",41.354755,2.153621,,0,,0
2.697,697,"Pallars - Zamora",41.395974,2.190915,,0,,0
2.698,698,"Av Icària - Joan Miró",41.390423,2.196311,,0,,0
2.699,699,"Benet Mateu - Manuel de Falla",41.393853,2.12624,,0,,0
2.700,700,"Pg Calvell - Rambla del Poblenou",41.397447,2.206519,,0,,0
2.701,701,"Els Vergós",41.397076,2.127003,,0,,0
2.702,702,"Pl Artós",41.395547,2.125619,,0,,0
2.703,703,"Ronda Sant Antoni - Pl Goya",41.383044,2.163775,,0,,0
2.704,704,"Parc de la Vall d'Hebron",41.431312,2.145728,,0,,0
2.705,705,"Meridiana - Josep Estivill",41.416295,2.187072,,0,,0
2.707,707,"Sants - Badal",41.375418,2.13188,,0,,0
2.708,708,"Pl de Sants",41.375368,2.134317,,0,,0
2.709,709,"Les Corts - Carles III",41.382732,2.128836,,0,,0
2.711,711,"Av Pedralbes - Cavallers",41.392903,2.115193,,0,,0
2.712,712,"Av de l'Exèrcit - Trias i Giró",41.385674,2.11118,,0,,0
2.713,713,"CAP Vallcarca",41.415485,2.142255,,0,,0
2.716,716,"Gran Via - Bilbao",41.409605,2.194869,,0,,0
2.717,717,"Gran Via - Selva de Mar",41.413669,2.200884,,0,,0
2.719,719,"Pg de Josep Carner - Jardins de Walter Benjamin",41.373072,2.175363,,0,,0
2.721,721,"Pg de Josep Carner - Pg de Montjuïc",41.371453,2.174319,,0,,0
2.722,722,"Paral·lel - Cabanes",41.374794,2.170635,,0,,0
2.723,723,"Paral·lel - Drassanes",41.374513,2.174799,,0,,0
2.725,725,"Mina de la Ciutat - Les Torres",41.446921,2.173469,,0,,0
2.727,727,"Lisboa - Porto",41.429139,2.157599,,0,,0
2.728,728,"Balmes - Almirall Oquendo",41.431146,2.20774,,0,,0
2.729,729,"Balmes - Alarcón",41.429628,2.210868,,0,,0
2.731,731,"Pg Torras i Bages - Els Segadors",41.436976,2.191278,,0,,0
2.732,732,"Av Jordà - Judea",41.42516,2.140704,,0,,0
2.733,733,"Av Jordà - Nínive",41.426617,2.138543,,0,,0
2.734,734,"Av Jordà - Natzaret",41.427023,2.136988,,0,,0
2.736,736,"Pl de la Llibertat",41.35372,2.075151,,0,,0
2.737,737,"Pl de la Llibertat",41.353789,2.07541,,0,,0
2.742,742,"Av de la Ribera - Pg Rocamora",41.484815,2.190839,,0,,0
2.743,743,"Bogatell - Pg Jaume I",41.482027,2.188942,,0,,0
2.744,744,"Felip II - Meridiana",41.421117,2.186077,,0,,0
2.747,747,"Av Catalunya - Sol",41.493747,2.182104,,0,,0
2.748,748,"Av de Cornellà - Pl Sardana",41.37277,2.084174,,0,,0
2.749,749,"Santa Rosalia - Castellbisbal",41.420754,2.14373,,0,,0
2.752,752,"Aiguablava - Pedrosa",41.448923,2.182143,,0,,0
2.753,753,"Aiguablava - La Fosca",41.448396,2.181763,,0,,0
2.754,754,"Pg Vall d'Hebron - L'Arrabassada",41.418623,2.139062,,0,,0
2.755,755,"Pg Valldaura - Guineueta",41.439437,2.165384,,0,,0
2.760,760,"Badal - Av Carrilet",41.366617,2.134608,,0,,0
2.761,761,"Av d'Esplugues - González Tablas",41.387484,2.106661,,0,,0
2.762,762,"Av d'Esplugues",41.389896,2.109146,,0,,0
2.763,763,"Av d'Esplugues - Av Pearson",41.39332,2.112004,,0,,0
2.764,764,"Bisbe Català - Pl de Pedralbes",41.396148,2.114438,,0,,0
2.765,765,"Pl Pius XII",41.387796,2.122168,,0,,0
2.766,766,"Diagonal - Pl Pius XII",41.387238,2.122615,,0,,0
2.768,768,"Grècia - Pl del Nen de la Rutlla",41.419113,2.171447,,0,,0
2.769,769,"Via Favència - Rambla Caçador",41.441477,2.167094,,0,,0
2.770,770,"Paral·lel - Margarit",41.374866,2.164506,,0,,0
2.772,772,"Doctor Pi i Molist - Pl Virrei Amat",41.430841,2.17462,,0,,0
2.773,773,"Doctor Pi i Molist - Orduña",41.433421,2.173055,,0,,0
2.774,774,"Gran Via - Vilamarí",41.377417,2.151919,,0,,0
2.776,776,"Sepúlveda - Av Mistral",41.375683,2.152409,,0,,0
2.777,777,"Av Roma - Tarragona",41.380472,2.143614,,0,,0
2.778,778,"Av Sant Ramon Nonat - Cardenal Reig",41.377434,2.116446,,0,,0
2.780,780,"Trafalgar - Bruc",41.389715,2.177001,,0,,0
2.783,783,"Sant Antoni Maria Claret - Lepant",41.408312,2.1704,,0,,0
2.784,784,"València - Lepant",41.403208,2.177417,,0,,0
2.787,787,"Escorial - Legalitat",41.407944,2.160791,,0,,0
2.788,788,"Pl Espanya - Paral·lel",41.374905,2.150598,,0,,0
2.789,789,"Pg de l'Exposició - Santa Madrona",41.370518,2.158591,,0,,0
2.791,791,"Ctra Nacional 152 - Pl Espanya",41.490737,2.184059,,0,,0
2.793,793,"Rambla del Carmel",41.42575,2.157562,,0,,0
2.795,795,"Gran Via - Llacuna",41.406343,2.191204,,0,,0
2.797,797,"Costa Pacheco - Font del Roure",41.428406,2.129634,,0,,0
2.800,800,"Natzaret - Cànoves",41.427013,2.135451,,0,,0
2.803,803,"Pg Verdum - Pl Jardins d'Alfàbia",41.436941,2.173484,,0,,0
2.804,804,"Via Júlia - Pl de la República",41.439271,2.175207,,0,,0
2.805,805,"Pg Valldaura - Font d'En Canyelles",41.439035,2.179162,,0,,0
2.806,806,"Mercat de la Guineueta",41.438791,2.170002,,0,,0
2.807,807,"Pg  Valldaura - Pg  de Verdum",41.438434,2.173495,,0,,0
2.808,808,"Via Júlia - Batllori",41.443578,2.178326,,0,,0
2.809,809,"Via Júlia - Font d'en Canyelles",41.440972,2.176739,,0,,0
2.810,810,"Via Júlia - Ptge Quintana",41.445,2.178941,,0,,0
2.813,813,"Via Favència - Almansa",41.444883,2.174626,,0,,0
2.814,814,"Villarroel - Buenos Aires",41.392053,2.147597,,0,,0
2.817,817,"Via Favència - Biblioteca Les Roquetes",41.445853,2.177482,,0,,0
2.818,818,"Pg Valldaura - Escultor Ordóñez",41.438895,2.179271,,0,,0
2.819,819,"Pg Verdum - Lorena",41.436965,2.173304,,0,,0
2.820,820,"Metro Maragall",41.424518,2.176125,,0,,0
2.821,821,"Riu Llobregat - Pl Antoni Martín i Sánchez",41.316954,2.084971,,0,,0
2.822,822,"Diagonal - Av de Sarrià",41.391332,2.14031,,0,,0
2.823,823,"Verge de Montserrat - Periodistes",41.421681,2.17412,,0,,0
2.824,824,"Alt de Pedrell - Aguilar",41.425645,2.168777,,0,,0
2.825,825,"Alt de Pedrell - Palautordera",41.426012,2.169578,,0,,0
2.826,826,"Arc de Sant Martí - Camil Oliveras",41.423724,2.171801,,0,,0
2.827,827,"Llull - Bilbao",41.401985,2.203556,,0,,0
2.828,828,"Guipúscoa - Bilbao",41.412351,2.192044,,0,,0
2.830,830,"Llull - Ciutat de Granada",41.398485,2.198913,,0,,0
2.831,831,"Collblanc - Rosich",41.37576,2.114648,,0,,0
2.835,835,"Pujades - Àlaba",41.39615,2.193287,,0,,0
2.838,838,"Pg Llorenç Serra - Av Francesc Macià",41.450458,2.205178,,0,,0
2.839,839,"Bruc - Provença",41.397189,2.165626,,0,,0
2.841,841,"Llúria - Mallorca",41.395576,2.165706,,0,,0
2.842,842,"Aribau - Mallorca",41.389687,2.15771,,0,,0
2.843,843,"Mercabarna",41.331174,2.115545,,0,,0
2.844,844,"Carrer número 6 - Carrer F",41.324991,2.118123,,0,,0
2.845,845,"Pg Mare de Déu del Coll - Ramon Rocafull",41.424836,2.152115,,0,,0
2.847,847,"Vallcarca",41.413293,2.144829,,0,,0
2.848,848,"Mare de Déu del Coll - Cartago",41.415551,2.146632,,0,,0
2.849,849,"Mare de Déu del Coll - Baixada de Sant Marià",41.417832,2.147739,,0,,0
2.850,850,"Mare de Déu del Coll - Santuari",41.420148,2.149116,,0,,0
2.851,851,"Mare de Déu del Coll - Santuari",41.420074,2.148918,,0,,0
2.852,852,"Mare de Déu del Coll - Baixada Solanell",41.417603,2.147553,,0,,0
2.853,853,"Mare de Déu del Coll - Pl Flandes",41.415437,2.146197,,0,,0
2.854,854,"Riera Blanca - Onze de Setembre",41.377321,2.121455,,0,,0
2.855,855,"Vallespir - Jardí de les Infantes",41.383907,2.13399,,0,,0
2.856,856,"Arizala - Av Madrid",41.376424,2.125104,,0,,0
2.857,857,"Rambla del Brasil - Miquel Àngel",41.377325,2.130095,,0,,0
2.858,858,"Carles III - Av Madrid",41.379788,2.128729,,0,,0
2.859,859,"Sant Antoni Maria Claret - Rambla Volart",41.415269,2.179668,,0,,0
2.861,861,"Pl Maragall - Navas de Tolosa",41.419794,2.181377,,0,,0
2.863,863,"Jaume Puigvert - José Millán González",41.416023,2.159963,,0,,0
2.864,864,"Doctor Ferran - Manuel Girona",41.390328,2.124042,,0,,0
2.865,865,"Doctor Ferran - Doctor August Pi i Sunyer",41.390477,2.123836,,0,,0
2.866,866,"Capità Arenas - Pg Manuel Girona",41.390835,2.125777,,0,,0
2.867,867,"Pg  Zona Franca - Mineria",41.362303,2.13764,,0,,0
2.868,868,"La Campana",41.367507,2.139298,,0,,0
2.871,871,"Mallorca - Meridiana",41.412524,2.187359,,0,,0
2.872,872,"Estació d'Autobusos Fabra i Puig",41.431628,2.183254,,0,,0
2.873,873,"Fabra i Puig - Neopàtria",41.430213,2.188359,,0,,0
2.874,874,"Fabra i Puig - Llenguadoc",41.430251,2.185483,,0,,0
2.875,875,"Escòcia",41.428619,2.179436,,0,,0
2.877,877,"Ctra de Ribes - Meridiana",41.449459,2.189744,,0,,0
2.878,878,"Av Rasos de Peguera - Meridiana",41.462148,2.179674,,0,,0
2.879,879,"Ctra C-17 Estació de Torre Baró",41.460726,2.181445,,0,,0
2.880,880,"Felip II - Palència",41.418413,2.189687,,0,,0
2.882,882,"Consell de Cent - Meridiana",41.406595,2.18651,,0,,0
2.883,883,"Meridiana - Pl de Mossèn Clapés",41.442337,2.186438,,0,,0
2.884,884,"Av Sivatte - Ctra Nacional 152",41.463874,2.180784,,0,,0
2.885,885,"Meridiana - Garbí",41.452107,2.188738,,0,,0
2.887,887,"Metro Maresme - Fòrum",41.412181,2.216685,,0,,0
2.888,888,"Gran Via - Maresme",41.417631,2.206185,,0,,0
2.889,889,"Gran Via - Maresme",41.418658,2.206966,,0,,0
2.893,893,"Av de la Fama - Tirso de Molina",41.350402,2.08324,,0,,0
2.894,894,"Pl Can Baró",41.416195,2.162288,,0,,0
2.895,895,"La Campana",41.368296,2.140017,,0,,0
2.897,897,"Pl Sanllehy",41.413941,2.160814,,0,,0
2.898,898,"Pl Catalana - Amílcar",41.421222,2.172909,,0,,0
2.899,899,"Guipúscoa - Biscaia",41.42683,2.211073,,0,,0
2.902,902,"Rubió i Ors - Pl Quatre Camins",41.355523,2.066788,,0,,0
2.903,903,"Rubió i Ors -  Camí Vell de Sant Boi",41.353117,2.069307,,0,,0
2.904,904,"Av Barcelona - Tambor del Bruc",41.367872,2.064254,,0,,0
2.905,905,"Ctra de Collblanc - Av Josep Molins",41.37621,2.105778,,0,,0
2.906,906,"Ctra de Collblanc - Av Tomàs Giménez",41.376147,2.10344,,0,,0
2.907,907,"Gran Via - Moianès",41.370232,2.142617,,0,,0
2.908,908,"Ctra de la Bordeta - Àliga",41.373185,2.143916,,0,,0
2.909,909,"Gavà - Ptge Solsona",41.371129,2.139994,,0,,0
2.910,910,"Providència - Alzina",41.406455,2.156613,,0,,0
2.911,911,"Biada - Torrent de l'Olla",41.404937,2.154317,,0,,0
2.912,912,"Pg Maragall - Els Quinze",41.42559,2.175371,,0,,0
2.913,913,"Indústria - Lepant",41.407479,2.171759,,0,,0
2.914,914,"Gran Via - Marina",41.39861,2.180649,,0,,0
2.915,915,"Vila Olímpica",41.388445,2.193668,,0,,0
2.916,916,"Av Granvia - Hospital Oncològic",41.345826,2.110728,,0,,0
2.917,917,"Av Granvia - Cotxeres TB",41.342627,2.106545,,0,,0
2.921,921,"Pl de Sarrià",41.399879,2.121379,,0,,0
2.922,922,"Ronda de Dalt - Ràfols",41.401583,2.114836,,0,,0
2.923,923,"Les Corts - Mejía Lequerica",41.381911,2.127255,,0,,0
2.925,925,"Mini Estadi - Palau Blaugrana",41.380834,2.119227,,0,,0
2.927,927,"Gran Via - Muntaner",41.384377,2.161685,,0,,0
2.928,928,"Diagonal - Muntaner",41.394302,2.150403,,0,,0
2.929,929,"Diagonal - Muntaner",41.394171,2.15052,,0,,0
2.930,930,"Còrsega - Aribau",41.392221,2.153531,,0,,0
2.931,931,"Via Augusta - Muntaner",41.399183,2.143539,,0,,0
2.932,932,"Trav de Gràcia - Muntaner",41.394956,2.147886,,0,,0
2.933,933,"Mitre - Balmes",41.404677,2.141067,,0,,0
2.934,934,"Mitre - Mandri",41.401131,2.136281,,0,,0
2.936,936,"Pg Sant Gervasi - Pl Bonanova",41.407118,2.13388,,0,,0
2.937,937,"Pg Sant Gervasi - Pl John F Kennedy",41.410035,2.135811,,0,,0
2.938,938,"Provença - Aribau",41.390302,2.155509,,0,,0
2.940,940,"Mitre - Av Sarrià",41.393021,2.131147,,0,,0
2.941,941,"Gran Via - Mandoni",41.369504,2.141953,,0,,0
2.942,942,"Secretari Coloma - Providència",41.410177,2.162296,,0,,0
2.943,943,"Pl Espanya - Av Reina Maria Cristina",41.374124,2.14957,,0,,0
2.945,945,"Poble Espanyol",41.369421,2.147,,0,,0
2.946,946,"Berenguer de Palou - Pont del Treball",41.423251,2.191799,,0,,0
2.947,947,"Berenguer de Palou - Pare Manyanet",41.427496,2.191686,,0,,0
2.949,949,"Indústria - Nàpols",41.404877,2.168282,,0,,0
2.954,954,"Pg  Joan de Borbó - Almirall Aixada",41.377649,2.188362,,0,,0
2.955,955,"Pg  Joan de Borbó",41.38003,2.187419,,0,,0
2.956,956,"Pg Joan de Borbó",41.379834,2.187255,,0,,0
2.957,957,"Pg Joan de Borbó - Almirall Aixada",41.377559,2.188155,,0,,0
2.959,959,"Pg Joan de Borbó - Judici",41.376099,2.188942,,0,,0
2.960,960,"Pg Joan de Borbó - Pl del Mar",41.374332,2.188567,,0,,0
2.962,962,"Metro Besòs",41.420481,2.207704,,0,,0
2.963,963,"Cantàbria - Andrade",41.418243,2.203552,,0,,0
2.965,965,"Pont del Treball - Santander",41.422093,2.197447,,0,,0
2.967,967,"Balmes - Jovellanos",41.430119,2.210319,,0,,0
2.968,968,"Balmes - Pereda",41.431327,2.207885,,0,,0
2.969,969,"Pg Enric Sanchís - Sant Adrià",41.435519,2.204847,,0,,0
2.970,970,"Pg Enric Sanchís - Santander",41.433497,2.205972,,0,,0
2.971,971,"Rambla Prim - Santander",41.425273,2.201282,,0,,0
2.972,972,"Pl Botticelli",41.433116,2.153152,,0,,0
2.973,973,"Artesania - Pl de la República",41.439606,2.174585,,0,,0
2.974,974,"Artesania - Góngora",41.441838,2.172807,,0,,0
2.977,977,"Via Barcino - Ausona",41.449846,2.192427,,0,,0
2.978,978,"Av Terra Nostra - Priorat",41.481873,2.167691,,0,,0
2.979,979,"Av Riera de Sant Cugat - Pere de Montcada",41.484568,2.178859,,0,,0
2.980,980,"Av Terra Nostra - CEIP Mitja Costa",41.482792,2.172908,,0,,0
2.981,981,"Av Terra Nostra - Llorer",41.482406,2.170493,,0,,0
2.983,983,"Av Terra Nostra - la Rosa",41.482321,2.170444,,0,,0
2.984,984,"Av Terra Nostra - Dàlia",41.482688,2.172705,,0,,0
2.985,985,"Av Riera de Sant Cugat - Huc de Montcada",41.48451,2.178948,,0,,0
2.986,986,"Quarters - Ctra Nacional 152",41.485109,2.183332,,0,,0
2.988,988,"Santaló - Trav de Gràcia",41.394838,2.146914,,0,,0
2.989,989,"Santaló - Mercat Galvany",41.396952,2.144214,,0,,0
2.990,990,"Numància - Parc Les Corts",41.386138,2.135869,,0,,0
2.991,991,"Les Corts - Numància",41.387311,2.135795,,0,,0
2.993,993,"Mandri - Artesa de Segre",41.402968,2.134025,,0,,0
2.994,994,"Mitre - Muntaner",41.40262,2.137557,,0,,0
2.995,995,"Pg Bonanova - Mandri",41.405342,2.131019,,0,,0
2.996,996,"Pg Bonanova - Mandri",41.405197,2.131001,,0,,0
2.997,997,"Mandri - Jardins Ca n'Altamira",41.404193,2.132682,,0,,0
2.998,998,"Santuari - Ceuta",41.420126,2.151357,,0,,0
2.999,999,"Santuari - La Murtra",41.419847,2.155033,,0,,0
2.1000,1000,"Santuari - La Murtra",41.419945,2.155085,,0,,0
2.1001,1001,"Santuari - l'Hortal",41.420235,2.151004,,0,,0
2.1002,1002,"Av de Vallcarca - Metro Penitents",41.418082,2.14092,,0,,0
2.1003,1003,"Pl Alfonso Comín - Pg  Vall d'Hebron",41.416211,2.138226,,0,,0
2.1004,1004,"Metro Paral·lel",41.375031,2.170619,,0,,0
2.1005,1005,"Pl Josep Maria Folch",41.376156,2.166602,,0,,0
2.1006,1006,"Ronda Sant Pau - Parlament",41.378352,2.163707,,0,,0
2.1007,1007,"Meridiana - Biscaia",41.417607,2.18675,,0,,0
2.1008,1008,"Pg Maragall - Trinxant",41.419027,2.180738,,0,,0
2.1009,1009,"Mallorca - Navas de Tolosa",41.413975,2.189273,,0,,0
2.1010,1010,"Olvan",41.429684,2.133275,,0,,0
2.1011,1011,"Pl del Nou",41.35325,2.141139,,0,,0
2.1017,1017,"Laureà Miró - Nord",41.378095,2.082201,,0,,0
2.1018,1018,"Av Can Corts - Ctra d'Esplugues",41.357494,2.068283,,0,,0
2.1020,1020,"Pg Vall d'Hebron - Natzaret",41.421576,2.140501,,0,,0
2.1021,1021,"Ardena - Ronda de Dalt",41.390617,2.107332,,0,,0
2.1022,1022,"Pg Calvell - Rambla del Poblenou",41.397033,2.205785,,0,,0
2.1023,1023,"Sant Adrià - Pg Enric Sanchís",41.436015,2.204051,,0,,0
2.1025,1025,"Ronda de Dalt - Moneders",41.389978,2.108094,,0,,0
2.1028,1028,"Pg Torras i Bages - Joan Torras",41.436982,2.191088,,0,,0
2.1030,1030,"Av Ferrer i Guàrdia - Av Montanyans",41.367321,2.145062,,0,,0
2.1033,1033,"Guipúscoa - Verneda",41.425066,2.208422,,0,,0
2.1034,1034,"Laureà Miró - Primer de Maig",41.376933,2.092166,,0,,0
2.1035,1035,"Via Favència - Molí",41.445946,2.180146,,0,,0
2.1036,1036,"Aribau - Laforja",41.397926,2.147323,,0,,0
2.1037,1037,"Pg Maragall - Manigua",41.421799,2.179568,,0,,0
2.1039,1039,"Via Laietana - Comtal",41.387063,2.174794,,0,,0
2.1040,1040,"Pl Urquinaona",41.388783,2.173322,,0,,0
2.1042,1042,"Riu Llobregat - Riu Cardener",41.317633,2.08342,,0,,0
2.1043,1043,"Av Remolar - Av Onze de setembre",41.319834,2.090315,,0,,0
2.1044,1044,"Av del Remolar - Pl de la Granja",41.318644,2.091294,,0,,0
2.1045,1045,"Pg  Zona Franca - Motors",41.352282,2.144507,,0,,0
2.1046,1046,"Pg  Zona Franca - Cisell",41.353751,2.143491,,0,,0
2.1047,1047,"Felip II - Ramon Albó",41.427261,2.177781,,0,,0
2.1048,1048,"Felip II - Pl Congrés",41.425721,2.179802,,0,,0
2.1051,1051,"Jerez - Pl de la Ciutadella",41.431347,2.155261,,0,,0
2.1052,1052,"Rambla Sant Just - Major",41.380882,2.075103,,0,,0
2.1053,1053,"Rambla Sant Just - Marquès de Monistrol",41.382967,2.074092,,0,,0
2.1054,1054,"Hereter - Av Indústria",41.382749,2.07144,,0,,0
2.1057,1057,"Constitució - Mossèn Amadeu Oller",41.369928,2.13775,,0,,0
2.1058,1058,"Viladomat - Manso",41.376481,2.16144,,0,,0
2.1059,1059,"Vilamarí - Av Mistral",41.375731,2.153416,,0,,0
2.1061,1061,"Paral·lel - Vila i Vilà",41.374858,2.167291,,0,,0
2.1062,1062,"Av Paral·lel - Lleida",41.374826,2.153056,,0,,0
2.1063,1063,"Av Paral·lel - Pl Espanya",41.374832,2.152229,,0,,0
2.1064,1064,"Av Paral·lel - Llançà",41.374833,2.152562,,0,,0
2.1065,1065,"Pl de la Font Castellana - Tenerife",41.415206,2.166346,,0,,0
2.1066,1066,"Mallorca - Pau Claris",41.395338,2.164454,,0,,0
2.1069,1069,"Metro Urquinaona",41.38902,2.172786,,0,,0
2.1070,1070,"Gran Via - Pau Claris",41.390143,2.169377,,0,,0
2.1071,1071,"Pl Urquinaona",41.389095,2.172533,,0,,0
2.1072,1072,"Mallorca - Padilla",41.40559,2.178124,,0,,0
2.1074,1074,"Ribes - Lepant",41.399547,2.184073,,0,,0
2.1075,1075,"Pl Universitat",41.38607,2.16397,,0,,0
2.1076,1076,"Pl Universitat - Pelai",41.385629,2.164493,,0,,0
2.1078,1078,"València - Pg de Gràcia",41.392346,2.162948,,0,,0
2.1079,1079,"Ronda Sant Pere - Pl Urquinaona",41.388581,2.171448,,0,,0
2.1080,1080,"Diagonal - Pau Claris",41.396737,2.160649,,0,,0
2.1081,1081,"Gran Via - Pau Claris",41.390295,2.169055,,0,,0
2.1082,1082,"Ronda Sant Pere - Pl de Catalunya",41.388275,2.170633,,0,,0
2.1086,1086,"Camèlies - Praga",41.413077,2.162952,,0,,0
2.1088,1088,"Casanova - París",41.391286,2.151078,,0,,0
2.1089,1089,"Rosselló - Bailèn",41.399765,2.165991,,0,,0
2.1090,1090,"Metro Maresme - Fòrum",41.412074,2.216952,,0,,0
2.1092,1092,"Guipúscoa - Rambla Prim",41.422866,2.205485,,0,,0
2.1095,1095,"Borbó - Pg Maragall",41.4264,2.175874,,0,,0
2.1098,1098,"Diagonal - Francesc Macià",41.393154,2.145855,,0,,0
2.1099,1099,"Josep Tarradellas - Comte Borrell",41.391524,2.144261,,0,,0
2.1101,1101,"Rambla de Sant Sebastià - Pl de la Vila",41.451151,2.208099,,0,,0
2.1102,1102,"Av Barcelona - Francesc Macià",41.366845,2.060569,,0,,0
2.1103,1103,"Pl Catalunya - Portal de l'Àngel",41.386592,2.171069,,0,,0
2.1104,1104,"Sardenya - Camèlies",41.413114,2.161533,,0,,0
2.1108,1108,"Av Marquès de l'Argentera - Pg Picasso",41.385091,2.185189,,0,,0
2.1109,1109,"Pallars - Pere IV",41.398714,2.194618,,0,,0
2.1113,1113,"Rambla Prim - Cristóbal de Moura",41.416465,2.2129,,0,,0
2.1116,1116,"Gran de Gràcia - Lesseps",41.406176,2.150079,,0,,0
2.1117,1117,"Gran de Gràcia - Pl Trilla",41.403474,2.152181,,0,,0
2.1119,1119,"Av República Argentina - Escipió",41.408629,2.147061,,0,,0
2.1120,1120,"Mitre - Berna",41.405622,2.146637,,0,,0
2.1122,1122,"Pl Lesseps - Riera de Vallcarca",41.406744,2.149511,,0,,0
2.1124,1124,"Ronda Universitat - Pl Universitat",41.386274,2.165311,,0,,0
2.1127,1127,"Pg  Lluís Companys - Arc de Triomf",41.39069,2.180252,,0,,0
2.1128,1128,"Pg  Lluís Companys - Jutjats",41.388838,2.182697,,0,,0
2.1129,1129,"Parc de la Ciutadella - Princesa",41.387804,2.183054,,0,,0
2.1130,1130,"Pg Picasso - Comerç",41.388363,2.182087,,0,,0
2.1131,1131,"Bac de Roda - Llull",41.405568,2.206712,,0,,0
2.1135,1135,"Pau Claris - Rosselló",41.396467,2.162074,,0,,0
2.1136,1136,"Pg de Gràcia - Mallorca",41.393522,2.163363,,0,,0
2.1137,1137,"Casanova - Mercat del Ninot",41.388597,2.154626,,0,,0
2.1138,1138,"Pg  de Sant Joan - València",41.398843,2.170462,,0,,0
2.1140,1140,"Padilla - Mallorca",41.405645,2.177352,,0,,0
2.1141,1141,"Av Gaudí",41.405772,2.174817,,0,,0
2.1143,1143,"Dos de Maig - Córsega",41.409817,2.178277,,0,,0
2.1144,1144,"Pg de Gràcia - Rosselló",41.395893,2.160116,,0,,0
2.1145,1145,"Pg Jaume I - Pl Lluís Companys",41.482075,2.188604,,0,,0
2.1146,1146,"Montbau",41.433033,2.141504,,0,,0
2.1147,1147,"Pg Vall d'Hebron - Poesia",41.430667,2.144754,,0,,0
2.1148,1148,"Pg Vall d'Hebron - Mundet",41.435426,2.147379,,0,,0
2.1150,1150,"Vayreda - Arquitectura",41.430385,2.140176,,0,,0
2.1153,1153,"Pl Catalunya",41.321642,2.093474,,0,,0
2.1155,1155,"Lleida - Ctra de l' Aviació",41.321557,2.093548,,0,,0
2.1156,1156,"Av del Parc - Bellaterra",41.358927,2.073605,,0,,0
2.1157,1157,"Av del Parc - Bonavista",41.359578,2.075877,,0,,0
2.1158,1158,"Pg Torras i Bages - Residència",41.439348,2.191109,,0,,0
2.1161,1161,"Pg Torras i Bages - Palomar",41.442298,2.190707,,0,,0
2.1163,1163,"Pg Picasso - Princesa",41.387133,2.183523,,0,,0
2.1164,1164,"Pla de Palau - Pl Pau Vila",41.38255,2.185005,,0,,0
2.1166,1166,"Meridiana - Estació d'Autobusos Fabra i Puig",41.430561,2.183016,,0,,0
2.1167,1167,"CAP Sant Andreu",41.433332,2.183621,,0,,0
2.1168,1168,"S'Agaró - Llosa",41.449237,2.187541,,0,,0
2.1171,1171,"Mina de la Ciutat - Pla de Fornells",41.447861,2.175191,,0,,0
2.1172,1172,"Via Favència - IES Guineueta",41.44345,2.172257,,0,,0
2.1173,1173,"Gran Via - Química",41.365862,2.137315,,0,,0
2.1174,1174,"Artesania - Antonio Machado",41.445167,2.17097,,0,,0
2.1176,1176,"Via Favència - Palamós",41.446496,2.184238,,0,,0
2.1178,1178,"Pont del Treball-Santander",41.422073,2.196494,,0,,0
2.1180,1180,"Rambla Prim - Cantàbria",41.424881,2.200925,,0,,0
2.1181,1181,"Rambla Prim - Guipúscoa",41.422359,2.204269,,0,,0
2.1185,1185,"Paral·lel - Av Mistral",41.375127,2.152734,,0,,0
2.1187,1187,"Camí de Sant Genís - Natzaret",41.428088,2.137191,,0,,0
2.1188,1188,"Natzaret - Av Jordà",41.427514,2.13684,,0,,0
2.1190,1190,"Bac de Roda - Gran Via",41.412493,2.197521,,0,,0
2.1191,1191,"Bilbao - Concili de Trento",41.411335,2.192025,,0,,0
2.1193,1193,"Jorge Manrique - Can Travi",41.431561,2.14949,,0,,0
2.1194,1194,"Badal - Constitució",41.368597,2.132776,,0,,0
2.1195,1195,"Vallcarca",41.413062,2.144236,,0,,0
2.1196,1196,"Isaac Newton - Lleó XIII",41.414895,2.135836,,0,,0
2.1197,1197,"Ctra d'Esplugues - Oliverar",41.366651,2.077829,,0,,0
2.1198,1198,"Av Sant Ildefons - Dàlia",41.362154,2.082364,,0,,0
2.1199,1199,"Av Sant Ildefons - Marfull",41.360524,2.081165,,0,,0
2.1200,1200,"Ctra d'Esplugues - La Miranda",41.361136,2.07278,,0,,0
2.1201,1201,"Ctra d'Esplugues - Pl del Sol",41.364401,2.075946,,0,,0
2.1202,1202,"Av de Sant Ildefons - Avet",41.365504,2.082789,,0,,0
2.1204,1204,"Pg  Santa Coloma - Pl de la Modernitat",41.446179,2.19345,,0,,0
2.1205,1205,"Pg  Santa Coloma - Tiana",41.448313,2.199544,,0,,0
2.1206,1206,"Riu Llobregat - Ronda del Sud",41.316126,2.09106,,0,,0
2.1207,1207,"Mallorca - Pg de Gràcia",41.393336,2.161799,,0,,0
2.1208,1208,"Pl Catalunya - Rambla Catalunya",41.387575,2.168831,,0,,0
2.1209,1209,"Gran Via - Balmes",41.387931,2.166431,,0,,0
2.1210,1210,"Pl Catalunya - Pg  de Gràcia",41.387757,2.169316,,0,,0
2.1211,1211,"Rambla Sant Just - Ctra Reial",41.379351,2.075892,,0,,0
2.1212,1212,"Rambla Sant Just - Catalunya",41.38034,2.075249,,0,,0
2.1213,1213,"Anselm Clavé - Av Catalunya",41.492142,2.183393,,0,,0
2.1214,1214,"Ramiro de Maeztu - Pl Sanllehy",41.413971,2.160694,,0,,0
2.1215,1215,"Ramiro de Maeztu - Miquel Sants Oliver",41.415147,2.158465,,0,,0
2.1216,1216,"Ctra del Carmel - Parc Güell",41.415707,2.155426,,0,,0
2.1217,1217,"Ctra del Carmel - Albert Llanas",41.416462,2.156469,,0,,0
2.1218,1218,"Ctra del Carmel - Pl Raimon Casellas",41.416835,2.158833,,0,,0
2.1219,1219,"Ctra del Carmel - Can Xirot",41.416974,2.156465,,0,,0
2.1220,1220,"Parc Güell",41.415506,2.155097,,0,,0
2.1221,1221,"Ctra del Carmel - Ramiro de Maeztu",41.415646,2.156804,,0,,0
2.1222,1222,"Ramiro de Maeztu - Av Pompeu Fabra",41.414884,2.158604,,0,,0
2.1223,1223,"Ramiro de Maeztu - C N Catalunya",41.415782,2.156793,,0,,0
2.1225,1225,"Sant Antoni Maria Claret - Nàpols",41.4049,2.165876,,0,,0
2.1226,1226,"Pg  Pujades - Parc de la Ciutadella",41.390461,2.185365,,0,,0
2.1227,1227,"Mallorca - Pg  Sant Joan",41.399839,2.170428,,0,,0
2.1228,1228,"València - Pg  Sant Joan",41.398963,2.171747,,0,,0
2.1229,1229,"Pl Tetuan - Gran Via",41.395093,2.176312,,0,,0
2.1230,1230,"Gran Via - Roger de Flor",41.39619,2.176898,,0,,0
2.1232,1232,"Pg Maragall - Ronda Guinardó",41.424242,2.177086,,0,,0
2.1233,1233,"Padilla - Trav de Gràcia",41.410353,2.171144,,0,,0
2.1234,1234,"Padilla - Mas Casanovas",41.411644,2.169474,,0,,0
2.1235,1235,"Pg Maragall - Av Frederic Rahola",41.427763,2.164694,,0,,0
2.1236,1236,"Pedrell - Font d'en Fargas",41.424465,2.16617,,0,,0
2.1237,1237,"Pedrell - Av Frederic Rahola",41.424175,2.168549,,0,,0
2.1238,1238,"Estadi del Futbol Club Barcelona",41.380455,2.125055,,0,,0
2.1239,1239,"Metro Collblanc",41.375678,2.11992,,0,,0
2.1240,1240,"Meridiana - Av Rio de Janeiro",41.443041,2.18621,,0,,0
2.1242,1242,"Pg Valldaura - Av Rio de Janeiro",41.43944,2.182604,,0,,0
2.1243,1243,"Montserrat de Casanovas - Marí",41.422414,2.161914,,0,,0
2.1244,1244,"Montserrat de Casanovas - Passerell",41.421547,2.159241,,0,,0
2.1246,1246,"Gran Via - Llúria",41.391937,2.171236,,0,,0
2.1247,1247,"València - Roger de Llúria",41.394666,2.166028,,0,,0
2.1252,1252,"Pg Vall d'Hebron - Basses d'Horta",41.425199,2.142908,,0,,0
2.1253,1253,"Josep Tarradellas - París",41.38641,2.142976,,0,,0
2.1254,1254,"Gran Via - Entença",41.378385,2.153719,,0,,0
2.1255,1255,"Sepúlveda - Rocafort",41.377377,2.15467,,0,,0
2.1257,1257,"Pl de Catalunya - Ronda Sant Pere",41.387727,2.170547,,0,,0
2.1258,1258,"La Rambla - Pl Catalunya",41.385362,2.170425,,0,,0
2.1259,1259,"Collblanc - Cardenal Reig",41.375919,2.114639,,0,,0
2.1260,1260,"Gran de Gràcia - Trav de Gràcia",41.40023,2.155103,,0,,0
2.1261,1261,"Gran de Gràcia - Metro Fontana",41.401809,2.153274,,0,,0
2.1262,1262,"Pl Gal·la Placídia",41.399564,2.152292,,0,,0
2.1263,1263,"Bruc - Còrsega",41.39884,2.163439,,0,,0
2.1264,1264,"Villarroel - Hospital Clínic",41.389382,2.151134,,0,,0
2.1265,1265,"Pg de Sant Joan - Rosselló",41.401263,2.16675,,0,,0
2.1268,1268,"Muntaner - Roselló",41.391059,2.153439,,0,,0
2.1271,1271,"Pl Catalunya - Bergara",41.386552,2.169525,,0,,0
2.1273,1273,"Llull - Llacuna",41.400066,2.20102,,0,,0
2.1274,1274,"Pujades - Bilbao",41.403014,2.20236,,0,,0
2.1278,1278,"Marina - Doctor Trueta",41.390944,2.192181,,0,,0
2.1279,1279,"Av Elies Pagès",41.428364,2.13287,,0,,0
2.1281,1281,"Ramon Trias Fargas - Pg  Marítim",41.38581,2.196459,,0,,0
2.1282,1282,"Platja de la Barceloneta",41.380519,2.192974,,0,,0
2.1283,1283,"Platja de la Barceloneta",41.380513,2.19313,,0,,0
2.1284,1284,"Hospital del Mar",41.383169,2.194609,,0,,0
2.1285,1285,"Ramon Trias Fargas - Ronda Litoral",41.386274,2.195852,,0,,0
2.1289,1289,"La Rambla - Pl del Teatre",41.378617,2.175699,,0,,0
2.1290,1290,"La Rambla - Liceu",41.381611,2.173078,,0,,0
2.1295,1295,"La Rambla - La Boqueria",41.381421,2.172813,,0,,0
2.1296,1296,"La Rambla - Font de Canaletes",41.385053,2.170125,,0,,0
2.1297,1297,"Mallorca - Marina",41.403954,2.175937,,0,,0
2.1298,1298,"Gran Via - Sardenya",41.398739,2.180295,,0,,0
2.1299,1299,"Verge de Montserrat - Sanllehy",41.413192,2.160759,,0,,0
2.1300,1300,"Pi i Margall - Pl Alfons el Savi",41.411285,2.164456,,0,,0
2.1301,1301,"Pi i Margall - Sardenya",41.409788,2.164282,,0,,0
2.1302,1302,"Buenaventura Muñoz - Sardenya",41.393584,2.187546,,0,,0
2.1305,1305,"Pg Maragall - Indústria",41.415155,2.180784,,0,,0
2.1306,1306,"Marina - Indústria",41.407498,2.170596,,0,,0
2.1307,1307,"Pg de Sant Joan - Trav de Gràcia",41.403929,2.163188,,0,,0
2.1310,1310,"Gran Via - Santa Dorotea",41.371705,2.14488,,0,,0
2.1313,1313,"Via Augusta - Tres Reis",41.404143,2.118016,,0,,0
2.1314,1314,"Josep Sangenís - Dante Alighieri",41.425218,2.152039,,0,,0
2.1315,1315,"Josep Sangenís - Santa Gemma",41.42398,2.148792,,0,,0
2.1316,1316,"Verge de Montserrat - Praga",41.41418,2.162303,,0,,0
2.1318,1318,"València - Diagonal",41.400688,2.174058,,0,,0
2.1319,1319,"Gran Via - Roger de Flor",41.396101,2.177304,,0,,0
2.1321,1321,"Mare de Déu de la Salut - Hospital de l'Esperança",41.410346,2.154882,,0,,0
2.1323,1323,"Pg  Zona Franca - Cisell",41.354767,2.143169,,0,,0
2.1324,1324,"Santa Rosalia - Sant Dalmir",41.423238,2.148815,,0,,0
2.1325,1325,"La Rambla - Santa Mònica",41.377785,2.175823,,0,,0
2.1326,1326,"Paral·lel - Drassanes",41.374788,2.17464,,0,,0
2.1327,1327,"Pi i Margall - Secretari Coloma",41.409576,2.163956,,0,,0
2.1328,1328,"Camèlies - Secretari Coloma",41.411349,2.15977,,0,,0
2.1329,1329,"Providència - Pi i Margall",41.410366,2.16359,,0,,0
2.1332,1332,"Parlament - Comte Borrell",41.377129,2.163558,,0,,0
2.1335,1335,"Escorial - Pl Joanic",41.406114,2.162517,,0,,0
2.1338,1338,"Segre - Sant Adrià",41.433581,2.192413,,0,,0
2.1339,1339,"Dublín - Meridiana",41.428613,2.18514,,0,,0
2.1340,1340,"Meridiana - Riera de Sant Andreu",41.435495,2.184425,,0,,0
2.1341,1341,"Bartrina - Pont del Dragó",41.439525,2.186133,,0,,0
2.1342,1342,"Pl de Mossèn Clapés",41.441726,2.18752,,0,,0
2.1344,1344,"Onze de Setembre - Virgili",41.430162,2.193125,,0,,0
2.1345,1345,"Pg Maragall - Segle XX",41.422076,2.179092,,0,,0
2.1347,1347,"Les Agudes 27",41.46364,2.178338,,0,,0
2.1348,1348,"Les Agudes - Fusters",41.46385,2.175157,,0,,0
2.1349,1349,"Circumval·lació - Les Agudes",41.462551,2.173653,,0,,0
2.1350,1350,"Torrent del Bosc",41.4622,2.174039,,0,,0
2.1351,1351,"Rovira i Virgili - Parc de la Pegaso",41.4279,2.18933,,0,,0
2.1352,1352,"Balmes - Mitre",41.404843,2.140169,,0,,0
2.1353,1353,"Balmes - Joaquim Folguera",41.406784,2.138735,,0,,0
2.1354,1354,"Balmes - Pl John F. Kennedy",41.409453,2.137364,,0,,0
2.1358,1358,"Av Tibidabo - Josep Maria Florensa",41.412905,2.134954,,0,,0
2.1360,1360,"Pl Bonanova",41.406603,2.133762,,0,,0
2.1361,1361,"Riera Blanca - Trav de les Corts",41.37605,2.121489,,0,,0
2.1362,1362,"Badal - Sants",41.375223,2.130779,,0,,0
2.1363,1363,"Rambla del Brasil - Violant d'Hongria",41.378894,2.128986,,0,,0
2.1364,1364,"Metro Pl de Sants",41.375417,2.137602,,0,,0
2.1365,1365,"Sants - Premià",41.375385,2.139312,,0,,0
2.1366,1366,"Villarroel - Sepúlveda",41.381507,2.161561,,0,,0
2.1367,1367,"Paral·lel - Tamarit",41.374889,2.155468,,0,,0
2.1368,1368,"Lleida - Tamarit",41.373734,2.154797,,0,,0
2.1369,1369,"Lleida - Av Paral·lel",41.374508,2.154201,,0,,0
2.1370,1370,"Calàbria - Av Mistral",41.377237,2.158372,,0,,0
2.1372,1372,"Pg Vall d'Hebron - Patronat Ribes",41.422341,2.141293,,0,,0
2.1373,1373,"Arizala - Les Corts",41.378573,2.123687,,0,,0
2.1374,1374,"Comandant Benítez - Av Madrid",41.379161,2.127799,,0,,0
2.1376,1376,"Carles III - Maria Cristina",41.387544,2.12696,,0,,0
2.1377,1377,"Nicaragua - Parc Les Corts",41.386253,2.137775,,0,,0
2.1378,1378,"Carles III - Mejía Lequerica",41.384214,2.127233,,0,,0
2.1379,1379,"Gran Via Carles III - Av Madrid",41.37998,2.129228,,0,,0
2.1380,1380,"Numància - Diagonal",41.389153,2.132859,,0,,0
2.1381,1381,"Entença - Montnegre",41.388533,2.139463,,0,,0
2.1382,1382,"Estació de França",41.384839,2.185399,,0,,0
2.1383,1383,"Riu Llobregat - Sant Cosme",41.316289,2.09103,,0,,0
2.1384,1384,"Riu Llobregat - Riu Xuquer",41.316597,2.087617,,0,,0
2.1385,1385,"Providència - Torrent de les Flors",41.407901,2.158928,,0,,0
2.1386,1386,"Aribau - Diagonal",41.395208,2.150395,,0,,0
2.1387,1387,"Gal·la Placídia",41.399203,2.152383,,0,,0
2.1388,1388,"Pg Sant Joan - Travessera de Gràcia",41.404456,2.163274,,0,,0
2.1389,1389,"Via Augusta - Diagonal",41.39607,2.15556,,0,,0
2.1390,1390,"Balmes - Trav de Gràcia",41.398281,2.151128,,0,,0
2.1391,1391,"Gran de Gràcia - Jesús",41.398356,2.157307,,0,,0
2.1392,1392,"Muntaner - Via Augusta",41.398566,2.143501,,0,,0
2.1393,1393,"Muntaner - Laforja",41.396893,2.145728,,0,,0
2.1394,1394,"Torrent de l'Olla - Astúries",41.403393,2.155744,,0,,0
2.1395,1395,"Lepant - Trav de Gràcia",41.409501,2.169922,,0,,0
2.1396,1396,"Lepant - Guinardó",41.411698,2.167011,,0,,0
2.1397,1397,"Av Tibidabo - Teodor Roviralta",41.415414,2.129421,,0,,0
2.1400,1400,"Cantunis",41.352088,2.158292,,0,,0
2.1402,1402,"Pg de Fabra i Puig - Torrent Can Mariner",41.432686,2.16299,,0,,0
2.1403,1403,"Fabra i Puig - Petrarca",41.430524,2.168028,,0,,0
2.1404,1404,"Fabra i Puig - Petrarca",41.430349,2.168059,,0,,0
2.1405,1405,"Guipúscoa - Selva de Mar",41.417419,2.198229,,0,,0
2.1407,1407,"Dante Alighieri - Sacedón",41.426092,2.154499,,0,,0
2.1408,1408,"Pare Pérez del Pulgar - Pare Manjón",41.454353,2.190832,,0,,0
2.1409,1409,"Pare Pérez del Pulgar - Peníscola",41.453441,2.189525,,0,,0
2.1410,1410,"Dante Alighieri - Tolrà",41.426862,2.155401,,0,,0
2.1411,1411,"Av de Cornellà - St Francesc Xavier",41.373696,2.084743,,0,,0
2.1412,1412,"Verge de Montserrat - Periodistes",41.421689,2.174279,,0,,0
2.1413,1413,"Av Pedralbes - Tòquio",41.390079,2.119079,,0,,0
2.1414,1414,"Josep Tarradellas - Numància",41.381164,2.142089,,0,,0
2.1418,1418,"Pg  Santa Coloma - Baró de Viver",41.448568,2.199742,,0,,0
2.1419,1419,"Pg  Santa Coloma - Nus de la Trinitat",41.446408,2.193568,,0,,0
2.1420,1420,"Pg Torras i Bages - Almirall Pròixida",41.44138,2.190771,,0,,0
2.1424,1424,"Costa Pacheco 26",41.428102,2.131249,,0,,0
2.1425,1425,"Diagonal - Balmes",41.395446,2.154913,,0,,0
2.1426,1426,"Calvet - Tenor Viñas",41.396011,2.141827,,0,,0
2.1427,1427,"Pg Vall d'Hebron - Ctra d'Horta",41.437974,2.153169,,0,,0
2.1428,1428,"Ctra d'Horta - Av Estatut de Catalunya",41.437428,2.153491,,0,,0
2.1430,1430,"Pl de l'Estatut",41.430787,2.155194,,0,,0
2.1432,1432,"Meridiana - Mallorca",41.412883,2.187051,,0,,0
2.1434,1434,"Av Granvia - Can Tries",41.354971,2.122077,,0,,0
2.1435,1435,"Sant Adrià - Sas",41.436122,2.2037,,0,,0
2.1436,1436,"Ciutat d'Asunción - Sant Adrià",41.436467,2.200978,,0,,0
2.1437,1437,"Via Júlia - Turó Blau",41.439283,2.175525,,0,,0
2.1438,1438,"Ctra de Collblanc - Pg del Cementiri",41.37597,2.111582,,0,,0
2.1440,1440,"Pg Vall d'Hebron - Scala Dei",41.439088,2.157768,,0,,0
2.1441,1441,"Pg Vall d'Hebron - Cementiri d'Horta",41.439719,2.158333,,0,,0
2.1443,1443,"Pl del Doctor Andreu - Funicular del Tibidabo",41.416444,2.130774,,0,,0
2.1444,1444,"Parc Municipal Font del Racó",41.415508,2.129658,,0,,0
2.1446,1446,"Arbeca - Lima",41.439255,2.208038,,0,,0
2.1447,1447,"Ctra del Carmel - Pasteur",41.417216,2.158452,,0,,0
2.1448,1448,"Ctra del Carmel - Mühlberg",41.417956,2.157657,,0,,0
2.1449,1449,"Ctra del Carmel - Gran Vista",41.418301,2.157315,,0,,0
2.1451,1451,"Guipúscoa - Cantàbria",41.419864,2.202078,,0,,0
2.1452,1452,"Av Catalunya - Serra d'Or",41.493949,2.182343,,0,,0
2.1453,1453,"Pg Guayaquil - Arbeca",41.439493,2.208097,,0,,0
2.1454,1454,"Caracas - Pl Fra Juníper Serra",41.439314,2.203622,,0,,0
2.1455,1455,"Ciutat d'Asunción - Potosí",41.441671,2.199823,,0,,0
2.1456,1456,"El Parador",41.38244,2.074191,,0,,0
2.1457,1457,"Bateria - Bifurcació",41.472248,2.184148,,0,,0
2.1458,1458,"Av dels Països Catalans - Gaietà Faura",41.379549,2.094527,,0,,0
2.1459,1459,"Av dels Països Catalans - Laureà Miró",41.378124,2.092118,,0,,0
2.1460,1460,"Av de Cornellà - Manuel Riera",41.374844,2.086176,,0,,0
2.1461,1461,"Av de Cornellà - Pont d'Esplugues",41.376825,2.088863,,0,,0
2.1466,1466,"Còrsega - Hospital Clínic",41.389297,2.149643,,0,,0
2.1467,1467,"París - Comte d'Urgell",41.389461,2.147794,,0,,0
2.1468,1468,"Gran Via - Villarroel",41.382694,2.158922,,0,,0
2.1469,1469,"Gran Via - Urgell",41.382423,2.159086,,0,,0
2.1472,1472,"Av Tibidabo - Josep Garí",41.415098,2.133486,,0,,0
2.1473,1473,"Av Tibidabo - Lluís Muntadas",41.41539,2.131297,,0,,0
2.1474,1474,"Arquitecte Moragas - Jorge Manrique",41.432676,2.147466,,0,,0
2.1476,1476,"Pla de Palau",41.382081,2.18413,,0,,0
2.1477,1477,"Pas Sota Muralla - Pl Pau Vila",41.381164,2.184435,,0,,0
2.1479,1479,"Port Vell",41.377126,2.183355,,0,,0
2.1482,1482,"Maremagnum",41.375717,2.182396,,0,,0
2.1483,1483,"Port Vell",41.37704,2.183502,,0,,0
2.1484,1484,"Jordi Girona - John M Keynes",41.387681,2.114729,,0,,0
2.1485,1485,"Sant Martí de l'Erm - Zona Esportiva Fontsanta",41.371552,2.069892,,0,,0
2.1486,1486,"Jacint Verdaguer - Fructuós Gelabert",41.373356,2.069013,,0,,0
2.1487,1487,"Via Favència - Lucena",41.444874,2.176011,,0,,0
2.1488,1488,"Villarroel - Mercat del Ninot",41.386799,2.154554,,0,,0
2.1489,1489,"Meridiana - Aragó",41.409495,2.187138,,0,,0
2.1490,1490,"Pau Claris - Mallorca",41.394548,2.164609,,0,,0
2.1492,1492,"Pg de Sant Joan - Pl Mossèn Jacint Verdaguer",41.398624,2.170429,,0,,0
2.1493,1493,"Balmes - València",41.391139,2.160075,,0,,0
2.1495,1495,"Muntaner - València",41.388468,2.156873,,0,,0
2.1497,1497,"Pg de Gràcia - València",41.393348,2.163272,,0,,0
2.1498,1498,"Lepant - Mallorca",41.40416,2.176964,,0,,0
2.1499,1499,"Metro Tarragona",41.378369,2.145213,,0,,0
2.1503,1503,"Castelladral - Oristà",41.463882,2.185188,,0,,0
2.1504,1504,"CEIP Ciutat Comtal",41.462793,2.182566,,0,,0
2.1508,1508,"Av de Vallcarca - Viaducte de Vallcarca",41.412055,2.144333,,0,,0
2.1509,1509,"Av República Argentina - Mare de Déu del Carmel",41.411942,2.140466,,0,,0
2.1510,1510,"Doctor Pi i Molist - Maladeta",41.43349,2.173158,,0,,0
2.1511,1511,"Pla de las Madres de la Plaza de Mayo",41.435217,2.172227,,0,,0
2.1513,1513,"Trav de Dalt - Verdi",41.408901,2.153017,,0,,0
2.1515,1515,"Pg Torras i Bages - Via Favència",41.445864,2.190654,,0,,0
2.1517,1517,"Via Júlia - Mas Duran",41.443511,2.178736,,0,,0
2.1518,1518,"Via Júlia - Via Favència",41.445409,2.179556,,0,,0
2.1519,1519,"Pl Karl Marx - Pg  Valldaura",41.439733,2.163211,,0,,0
2.1520,1520,"Diagonal - Pg  de Gràcia",41.396809,2.160304,,0,,0
2.1522,1522,"Av Príncep d'Astúries - Via Augusta",41.401226,2.151112,,0,,0
2.1525,1525,"Trav de Gràcia - Balmes",41.39781,2.152365,,0,,0
2.1527,1527,"Via Augusta - Amigó",41.39806,2.140766,,0,,0
2.1528,1528,"Via Augusta - Ganduxer",41.397705,2.135855,,0,,0
2.1529,1529,"Balmes - Mitre",41.404222,2.14104,,0,,0
2.1530,1530,"Balmes - Copèrnic",41.402346,2.145348,,0,,0
2.1531,1531,"Pg Bonanova - Escoles Pies",41.403395,2.127532,,0,,0
2.1532,1532,"Pg Bonanova - Carrasco i Formiguera",41.401266,2.12372,,0,,0
2.1533,1533,"Av Príncep d'Astúries - Guillem Tell",41.402807,2.15003,,0,,0
2.1534,1534,"Pl Borràs",41.40485,2.117524,,0,,0
2.1535,1535,"Muntaner - Parc de Monterols",41.401245,2.139928,,0,,0
2.1536,1536,"Muntaner - Plató",41.399861,2.14178,,0,,0
2.1538,1538,"Pl Borràs",41.403958,2.117183,,0,,0
2.1539,1539,"Adrià Margarit - Teodor Roviralta",41.414158,2.131206,,0,,0
2.1540,1540,"Rotonda de Bellesguard",41.410505,2.126163,,0,,0
2.1541,1541,"Terré - Iradier",41.40696,2.121428,,0,,0
2.1542,1542,"Av Vallcarca - Capellades",41.419111,2.140921,,0,,0
2.1543,1543,"Av República Argentina - Pl Alfonso Comín",41.413428,2.138571,,0,,0
2.1544,1544,"Poesia - Jardins de Montbau",41.431955,2.144059,,0,,0
2.1545,1545,"Floridablanca - Comte d'Urgell",41.380647,2.161455,,0,,0
2.1546,1546,"Buenos Aires - Comte d'Urgell",41.392024,2.146621,,0,,0
2.1547,1547,"Torre de Collserola",41.418902,2.116738,,0,,0
2.1548,1548,"Aiguablava - Nou Barris",41.447383,2.1805,,0,,0
2.1552,1552,"Av de la Ribera - Llevant",41.476868,2.1891,,0,,0
2.1553,1553,"Av Anselm Clavé - Les Moreres",41.334075,2.100882,,0,,0
2.1554,1554,"Josep Tarradellas - Viladomat",41.389195,2.14356,,0,,0
2.1555,1555,"Londres - Hospital del Sagrat Cor",41.389812,2.145813,,0,,0
2.1556,1556,"Gran Via - Viladomat",41.380036,2.155913,,0,,0
2.1558,1558,"Parlament - Paral·lel",41.375499,2.161378,,0,,0
2.1559,1559,"Gran Via - Llançà",41.376261,2.151148,,0,,0
2.1563,1563,"Camí del Polvorí - Estadi Serrahima",41.366194,2.144103,,0,,0
2.1564,1564,"Segura - Estadi Serrahima",41.36434,2.14351,,0,,0
2.1565,1565,"Segura - Barri del Polvorí",41.365407,2.141652,,0,,0
2.1566,1566,"Segura - Fortuna",41.365312,2.141662,,0,,0
2.1567,1567,"Segura - Polvorí",41.364375,2.143334,,0,,0
2.1568,1568,"Polvorí - Camí de la Fuxarda",41.365382,2.144961,,0,,0
2.1569,1569,"Polvorí - Av Ferrer i Guàrdia",41.368073,2.144628,,0,,0
2.1570,1570,"Av J.V.Foix - Pedró de la Creu",41.395544,2.119956,,0,,0
2.1571,1571,"Eduardo Conde - Santa Amèlia",41.393336,2.121085,,0,,0
2.1572,1572,"Via Augusta - Anglí",41.397833,2.1292,,0,,0
2.1573,1573,"Via Augusta - Els Vergós",41.398257,2.125753,,0,,0
2.1575,1575,"Marquès de Sentmenat - Numància",41.384969,2.136713,,0,,0
2.1576,1576,"Av Madrid - Joan Güell",41.380815,2.132811,,0,,0
2.1577,1577,"Les Corts - Vallespir",41.385284,2.132669,,0,,0
2.1578,1578,"Pl del Centre",41.381885,2.136063,,0,,0
2.1580,1580,"Guillem Tell - Av Príncep d'Astúries",41.402796,2.148996,,0,,0
2.1581,1581,"Mitre - Saragossa",41.405285,2.144073,,0,,0
2.1582,1582,"Mitre - Pàdua",41.405824,2.146153,,0,,0
2.1587,1587,"CAP Sarrià",41.401932,2.121444,,0,,0
2.1589,1589,"Doctor Pi i Molist - Fabra i Puig",41.430771,2.174491,,0,,0
2.1590,1590,"Fabra i Puig - Meridiana",41.430261,2.181997,,0,,0
2.1591,1591,"Fabra i Puig - Arnau d'Oms",41.430324,2.177722,,0,,0
2.1592,1592,"Fabra i Puig - Arnau d'Oms",41.430338,2.176723,,0,,0
2.1594,1594,"Pl Karl Marx",41.439395,2.162486,,0,,0
2.1595,1595,"Centre Esportiu Ciutat Meridiana",41.459327,2.176256,,0,,0
2.1597,1597,"Jorge Manrique - C E Hispano Francès",41.431433,2.149286,,0,,0
2.1599,1599,"Via Laietana - Jutjats",41.382821,2.180363,,0,,0
2.1600,1600,"Via Laietana - Pl Ramon Berenguer",41.385071,2.17739,,0,,0
2.1602,1602,"Via Laietana - Pl Ramon Berenguer",41.384963,2.177278,,0,,0
2.1604,1604,"Pg Marítim - Pepe Rubianes",41.379075,2.192087,,0,,0
2.1605,1605,"Pepe Rubianes",41.378391,2.190071,,0,,0
2.1606,1606,"Pg Marítim - Pepe Rubianes",41.379165,2.192298,,0,,0
2.1610,1610,"Carrer número 4 - Carrer C",41.329827,2.131949,,0,,0
2.1611,1611,"Av Gran Via - Rambla Marina",41.348273,2.112261,,0,,0
2.1612,1612,"Av Gran Via - Av Mare de Déu de Bellvitge",41.346167,2.11024,,0,,0
2.1613,1613,"Rambla Marina - Metro de Bellvitge",41.35162,2.110198,,0,,0
2.1614,1614,"Carrer número 4 - Carrer B",41.329619,2.133333,,0,,0
2.1615,1615,"Carrer número 4 - Carrer D",41.331081,2.128353,,0,,0
2.1616,1616,"Pg Pujades - Parc de la Ciutadella",41.389982,2.185053,,0,,0
2.1617,1617,"Carrer número 4 - Mercabarna",41.334345,2.119037,,0,,0
2.1618,1618,"Carrer número 4 - Carrer F",41.33299,2.122905,,0,,0
2.1619,1619,"Carrer número 4 - Carrer E",41.332135,2.125338,,0,,0
2.1620,1620,"Metro Poble Sec",41.37488,2.159895,,0,,0
2.1621,1621,"Palamós - Tamariu",41.449414,2.186129,,0,,0
2.1622,1622,"S'Agaró - Sa Tuna",41.451406,2.187922,,0,,0
2.1624,1624,"Parc del Turó de la Peira",41.433376,2.163352,,0,,0
2.1625,1625,"Mercat Mare de Déu de Núria",41.459926,2.172569,,0,,0
2.1626,1626,"Perafita - Av Rasos de Peguera",41.4597,2.170546,,0,,0
2.1630,1630,"Badajoz - Doctor Trueta",41.394938,2.2004,,0,,0
2.1631,1631,"Marina - Ramon Turró",41.390871,2.191899,,0,,0
2.1633,1633,"Jacint Verdaguer - de la TV3",41.373976,2.07146,,0,,0
2.1636,1636,"Tamarit - Mercat de Sant Antoni",41.379969,2.162654,,0,,0
2.1637,1637,"Pg Reina Elisenda - Major de Sarrià",41.399806,2.120795,,0,,0
2.1638,1638,"Carrer A - Carrer número 3",41.334949,2.140311,,0,,0
2.1639,1639,"Carrer A- Comissaria Portuària",41.338013,2.142164,,0,,0
2.1640,1640,"Carrer A - Comissaria Portuària",41.337416,2.141249,,0,,0
2.1641,1641,"Carrer A - Carrer número 3",41.331041,2.137357,,0,,0
2.1642,1642,"Carrer A - Carrer número 4",41.329164,2.136191,,0,,0
2.1643,1643,"Mercabarna - Mercat del Peix",41.334052,2.117334,,0,,0
2.1644,1644,"Palamós - La Fosca",41.447867,2.185263,,0,,0
2.1645,1645,"Carrer D - Carrer número 4",41.33011,2.128757,,0,,0
2.1646,1646,"Carrer D - Carrer número 5",41.327592,2.127203,,0,,0
2.1647,1647,"Carrer D - Carrer número 6",41.324901,2.125546,,0,,0
2.1650,1650,"Av Doctor Marañón - Av de Xile",41.381439,2.11435,,0,,0
2.1652,1652,"Riu Llobregat - Riu Ebre",41.316754,2.087585,,0,,0
2.1653,1653,"Ctra d'Esplugues - Domènech i Montaner",41.364416,2.07564,,0,,0
2.1654,1654,"Ctra d'Esplugues - Torras i Bages",41.361171,2.072433,,0,,0
2.1655,1655,"Av Sant Ildefons - Av República Argentina",41.362768,2.082816,,0,,0
2.1656,1656,"Av Sant Ildefons - Bruc",41.36049,2.080818,,0,,0
2.1657,1657,"Av Barcelona - Mare de Déu de la Mercè",41.368507,2.070638,,0,,0
2.1658,1658,"St Martí de l'Erm - Marquès de Monistrol",41.371411,2.070081,,0,,0
2.1659,1659,"Ciutat d'Asunción - Tucumán",41.444586,2.199257,,0,,0
2.1660,1660,"Pl Maragall - Xiprer",41.41888,2.180476,,0,,0
2.1661,1661,"Rambla Prim - Pallars",41.414336,2.214866,,0,,0
2.1663,1663,"Meridiana - Pl dels Jardins d'Elx",41.4235,2.187079,,0,,0
2.1665,1665,"Guipúscoa - Extremadura",41.424692,2.208523,,0,,0
2.1666,1666,"Bernat Metge - Argentina",41.420188,2.211767,,0,,0
2.1669,1669,"Carrer número 1 - Carrer número 60",41.344949,2.144315,,0,,0
2.1670,1670,"Transports Metropolitans de Barcelona",41.346736,2.14228,,0,,0
2.1671,1671,"Area Metropolitana de Barcelona",41.346705,2.142219,,0,,0
2.1690,1690,"Riu Llobregat - Riu Túria",41.3171,2.08495,,0,,0
2.1691,1691,"Riu Llobregat - Av Onze de Setembre",41.317465,2.08335,,0,,0
2.1695,1695,"Ctra d'Horta",41.438971,2.154218,,0,,0
2.1696,1696,"Fusters - Ctra Nacional 150",41.464179,2.174811,,0,,0
2.1697,1697,"Ctra Reial - Ateneu",41.378633,2.077387,,0,,0
2.1699,1699,"Bernat Metge - Rambla Prim",41.420458,2.211899,,0,,0
2.1701,1701,"Fusters - Ctra Nacional 150",41.464613,2.175078,,0,,0
2.1702,1702,"General Mendoza - Santa Rosalia",41.421466,2.141633,,0,,0
2.1703,1703,"Les Agudes (a Torre Baró-Vallbona)",41.461547,2.175902,,0,,0
2.1704,1704,"Les Agudes - Costabona (a Torre Baró-Vallbona)",41.462708,2.177347,,0,,0
2.1705,1705,"Vallcivera - Pl Roja",41.461181,2.179395,,0,,0
2.1706,1706,"Av Rasos de Peguera - Pedraforca",41.460493,2.173803,,0,,0
2.1707,1707,"Les Agudes - Costabona (a Can Cuiàs)",41.462681,2.177265,,0,,0
2.1708,1708,"Les Agudes - Av Rasos de Peguera (a Can Cuiàs)",41.461477,2.175881,,0,,0
2.1709,1709,"Meridiana - Ctra de Ribes",41.449895,2.188848,,0,,0
2.1710,1710,"Pg de Santa Coloma - Ctra de Ribes",41.44513,2.189791,,0,,0
2.1711,1711,"Via Favència - Ctra de Ribes",41.447117,2.189923,,0,,0
2.1712,1712,"Pl de Josep Andreu i Abelló",41.447863,2.190509,,0,,0
2.1713,1713,"Les Corts - Aurora Bertrana",41.377057,2.119821,,0,,0
2.1714,1714,"Pare Manyanet - Sant Sebastià",41.427701,2.191346,,0,,0
2.1715,1715,"Av Mossèn Joaquim Castellví - Barcelona",41.487644,2.187772,,0,,0
2.1716,1716,"Rambla dels  Països Catalans - Torras i Bages",41.489388,2.186889,,0,,0
2.1717,1717,"Rambla dels  Països Catalans - Pl Espanya",41.491288,2.185462,,0,,0
2.1718,1718,"Av Riera de Sant Cugat - Ptge de la Pintura",41.485729,2.181499,,0,,0
2.1719,1719,"Anselm Clavé - Pl Espanya",41.492024,2.183483,,0,,0
2.1720,1720,"Av Indústria - Av Camp Roig",41.38049,2.066909,,0,,0
2.1721,1721,"Av Indústria - Ramón i Cajal",41.381787,2.068691,,0,,0
2.1722,1722,"Av Lluís Companys - Av Generalitat",41.37543,2.056903,,0,,0
2.1723,1723,"Av Lluís Companys - Rubió i Tuduri",41.377446,2.060231,,0,,0
2.1724,1724,"Av Lluís Companys - Pla del Vent",41.37853,2.062027,,0,,0
2.1725,1725,"Complex Esportiu Hospitalet Nord",41.37649,2.101576,,0,,0
2.1726,1726,"Laureà Miró - Molí",41.376911,2.095684,,0,,0
2.1728,1728,"Av Maresme - Av de la Fama",41.34969,2.087016,,0,,0
2.1729,1729,"Pl Espanya - Sant Tomàs",41.491228,2.183832,,0,,0
2.1730,1730,"Mercat Ciutat Meridiana",41.462304,2.178201,,0,,0
2.1731,1731,"Les Agudes - Can Cuiàs",41.463726,2.175517,,0,,0
2.1732,1732,"Les Agudes 31",41.463555,2.178125,,0,,0
2.1733,1733,"Les Agudes 118-124",41.461211,2.174072,,0,,0
2.1736,1736,"Estació TIR - Pg Zona Franca",41.346925,2.148719,,0,,0
2.1737,1737,"Av Barcelona - Poliesportiu Municipal",41.367979,2.064016,,0,,0
2.1739,1739,"Fructuós Gelabert - Jacint Verdaguer",41.37276,2.067297,,0,,0
2.1741,1741,"Cotxeres TB Zona Franca",41.32987,2.137157,,0,,0
2.1742,1742,"Mitre - Balmes",41.404254,2.140622,,0,,0
2.1743,1743,"Ctra Cementiri de Collserola - Coll de La Ventosa",41.449921,2.158937,,0,,0
2.1744,1744,"Tibidabo - Mare de Déu de Montserrat",41.427545,2.21114,,0,,0
2.1745,1745,"Via Augusta - Margenat",41.402008,2.12044,,0,,0
2.1746,1746,"Av dels Països Catalans - Somatents",41.377829,2.091891,,0,,0
2.1747,1747,"Av dels Països Catalans - Direcció Gral d'Esports",41.379655,2.094964,,0,,0
2.1749,1749,"Ctra Reial - Rambla Modolell",41.378569,2.076869,,0,,0
2.1750,1750,"Ctra Reial - de l'Estalvi",41.378268,2.079496,,0,,0
2.1751,1751,"Laureà Miró - Anton Fortuny",41.377957,2.082374,,0,,0
2.1752,1752,"Av Madrid - Carles III",41.378713,2.127706,,0,,0
2.1753,1753,"Av Madrid - Benavent",41.377393,2.125406,,0,,0
2.1754,1754,"Av Madrid - Arizala",41.376134,2.123659,,0,,0
2.1755,1755,"Sants - Munné",41.375605,2.122873,,0,,0
2.1756,1756,"Metro Badal",41.375598,2.128907,,0,,0
2.1758,1758,"Coll de La Ventosa",41.450797,2.158914,,0,,0
2.1759,1759,"Ctra del Cementiri de Collserola - Recinte Hebreu",41.459721,2.155028,,0,,0
2.1760,1760,"Ctra Cementiri Collserola - Camí Vall de St Iscle",41.458991,2.154819,,0,,0
2.1761,1761,"Av l'Alzinar - Transversal",41.46163,2.182768,,0,,0
2.1764,1764,"Av Icària - Joan Miró",41.390328,2.195773,,0,,0
2.1765,1765,"Meridiana - Pare Pérez del Pulgar",41.453439,2.18916,,0,,0
2.1766,1766,"Metro Badal",41.375499,2.127962,,0,,0
2.1767,1767,"Pl de Sants",41.375489,2.13427,,0,,0
2.1768,1768,"Sants - Rambla del Brasil",41.375555,2.131029,,0,,0
2.1769,1769,"Badal - Constitució",41.369376,2.133047,,0,,0
2.1771,1771,"Sant Antoni - Pl de Sants",41.376062,2.136333,,0,,0
2.1775,1775,"Av Tibidabo - Ronda de Dalt",41.414289,2.134144,,0,,0
2.1776,1776,"Pl Alfonso Comín - Isaac Newton",41.41515,2.136141,,0,,0
2.1777,1777,"Major de Can Caralleu - Ronda de Dalt",41.401281,2.113442,,0,,0
2.1778,1778,"Meridiana - S'Agaró",41.448149,2.187808,,0,,0
2.1779,1779,"Ctra d'Horta - Ronda de Dalt",41.439599,2.15436,,0,,0
2.1780,1780,"Lima - Caracas",41.439228,2.204478,,0,,0
2.1781,1781,"Estació TIR - Ronda Litoral",41.347015,2.148776,,0,,0
2.1785,1785,"Costa Pacheco 21",41.428037,2.131294,,0,,0
2.1787,1787,"Trelawny - Pg  Marítim",41.385008,2.195475,,0,,0
2.1788,1788,"Trelawny - Av Litoral",41.385672,2.194599,,0,,0
2.1789,1789,"Av Granvia - Hospital de Bellvitge",41.343168,2.105187,,0,,0
2.1791,1791,"Berenguer de Palou - Baixada de La Sagrera",41.420899,2.19132,,0,,0
2.1792,1792,"Sagrera - Pl del General Moragues",41.418211,2.191309,,0,,0
2.1800,1800,"Pl de l'Agrupació número 9",41.457522,2.16302,,0,,0
2.1801,1801,"Agrupació número 16·17",41.463374,2.159267,,0,,0
2.1802,1802,"Funicular de Vallvidrera - Pl Pep Ventura",41.414524,2.10531,,0,,0
2.1803,1803,"Funicular de Vallvidrera",41.414226,2.105831,,0,,0
2.1804,1804,"Camí Vell",41.408909,2.10165,,0,,0
2.1805,1805,"Pl La Masia",41.480702,2.165273,,0,,0
2.1806,1806,"Ctra del Cementiri de Collserola - Ramon Llull",41.473323,2.165004,,0,,0
2.1808,1808,"Sales de Vetlla - Capelles",41.47033,2.156882,,0,,0
2.1809,1809,"Ramon Llull - Ctra de Montcada",41.474253,2.166233,,0,,0
2.1810,1810,"Cruïlla de Carreteres",41.418296,2.11655,,0,,0
2.1811,1811,"Ctra de Vallvidrera - Accés Escola Judicial",41.416668,2.112264,,0,,0
2.1812,1812,"Parc de la Budellera",41.415931,2.110116,,0,,0
2.1814,1814,"Mont d'Orsà - Romanimar",41.411034,2.102903,,0,,0
2.1815,1815,"Camí Santa Creu d'Olorda",41.409021,2.10165,,0,,0
2.1816,1816,"Mont d'Orsà",41.41129,2.103152,,0,,0
2.1817,1817,"Pl de Vallvidrera - Alberes",41.412984,2.104667,,0,,0
2.1818,1818,"Font del Mont - Parc de la Budellera",41.415877,2.110201,,0,,0
2.1819,1819,"Accés Escola Judicial",41.416693,2.112606,,0,,0
2.1820,1820,"Ctra de Vallvidrera - Cruïlla de Carreteres",41.41777,2.116702,,0,,0
2.1821,1821,"Mentora Alsina",41.421733,2.12111,,0,,0
2.1826,1826,"Pl Dante",41.36864,2.165212,,0,,0
2.1827,1827,"Costa Pacheco - Av Elies Pagès",41.428356,2.132452,,0,,0
2.1828,1828,"Av Elies Pagès - Natzaret",41.427466,2.134806,,0,,0
2.1829,1829,"Av Indústria - Jacint Benavente",41.382624,2.069893,,0,,0
2.1832,1832,"Caracas - Clariana",41.447186,2.201122,,0,,0
2.1834,1834,"Pl Congrés",41.425833,2.180585,,0,,0
2.1835,1835,"Olesa - Campo Florido",41.421444,2.183588,,0,,0
2.1841,1841,"Consell de Cent - Rector Triadó",41.376557,2.145704,,0,,0
2.1842,1842,"Moianès - Vilardell",41.374266,2.142472,,0,,0
2.1848,1848,"Constitució - Riera de Tena",41.369524,2.134587,,0,,0
2.1849,1849,"Olzinelles - Constitució",41.370357,2.13771,,0,,0
2.1850,1850,"Olzinelles - Noguera Pallaresa",41.371937,2.137049,,0,,0
2.1851,1851,"Pl Bonet i Muixí",41.374228,2.136371,,0,,0
2.1852,1852,"Tajo - Ptge Vila i Rosell",41.429594,2.16035,,0,,0
2.1855,1855,"Lisboa - Alarcón",41.427572,2.153826,,0,,0
2.1856,1856,"Plàtans - Pl de la Clota",41.426335,2.150388,,0,,0
2.1857,1857,"Granja Vella - Basses d'Horta",41.427134,2.144904,,0,,0
2.1858,1858,"Granja Vella - Pg  Vall d'Hebron",41.42715,2.14405,,0,,0
2.1859,1859,"Coll i Alentorn - Av Martí i Codolar",41.424512,2.147835,,0,,0
2.1860,1860,"Pantà de Tremp - Pl de la Clota",41.425689,2.149997,,0,,0
2.1861,1861,"Lisboa - Serrallonga",41.427457,2.153901,,0,,0
2.1862,1862,"Av Joan XXIII - Maternitat",41.384196,2.122772,,0,,0
2.1863,1863,"Sor Eulàlia d'Anzizu - Gran Capità",41.388114,2.109948,,0,,0
2.1864,1864,"Sor Eulàlia d'Anzizu - Dulcet",41.389938,2.112436,,0,,0
2.1865,1865,"Miret i Sans - Av d'Esplugues",41.391528,2.110861,,0,,0
2.1868,1868,"Joan d'Alòs - Av Pearson",41.391457,2.10383,,0,,0
2.1869,1869,"Torrent de les Roses - Mare de Déu de la Merçé",41.389236,2.103567,,0,,0
2.1870,1870,"Pl Coll de Finestrelles",41.389022,2.104255,,0,,0
2.1872,1872,"Josep Serrano - Baró Sant Lluís",41.417233,2.162583,,0,,0
2.1873,1873,"Jaume Puigvert - Josep Serrano",41.416523,2.16086,,0,,0
2.1874,1874,"Av Can Baró - Bismarck",41.415217,2.161152,,0,,0
2.1879,1879,"Diagonal - Ciutat de Granada",41.404189,2.191262,,0,,0
2.1880,1880,"Diagonal - Roc Boronat",41.404571,2.191227,,0,,0
2.1881,1881,"Parc de Cervantes",41.385277,2.104711,,0,,0
2.1882,1882,"Doctor Ferran",41.390656,2.123588,,0,,0
2.1883,1883,"Manila - Doctor Ferran",41.389806,2.125704,,0,,0
2.1885,1885,"Ronda Guinardó - Sardenya",41.412174,2.162659,,0,,0
2.1886,1886,"Fabra i Puig",41.429359,2.183873,,0,,0
2.1887,1887,"Metro Maragall",41.424755,2.177418,,0,,0
2.1890,1890,"Diagonal - Josep Pla",41.410003,2.212899,,0,,0
2.1891,1891,"Diagonal - Selva de Mar",41.409165,2.209545,,0,,0
2.1892,1892,"Diagonal - Fluvià",41.407908,2.204555,,0,,0
2.1893,1893,"Diagonal - Parc del Poblenou",41.406357,2.198312,,0,,0
2.1894,1894,"Diagonal - Rambla del Poblenou",41.405444,2.194704,,0,,0
2.1896,1896,"Diagonal - Pere IV",41.406292,2.199611,,0,,0
2.1897,1897,"Diagonal - Bac de Roda",41.407592,2.204838,,0,,0
2.1898,1898,"Diagonal - Metro Selva de Mar",41.408882,2.209974,,0,,0
2.1899,1899,"Diagonal - Agricultura",41.40965,2.213097,,0,,0
2.1900,1900,"Antonio Machado - Barri de Canyelles",41.444218,2.170234,,0,,0
2.1901,1901,"Metro Fabra i Puig",41.431678,2.18325,,0,,0
2.1903,1903,"Ctra Reial - Comerç",41.379573,2.066913,,0,,0
2.1904,1904,"Pl d'Eusebi Güell",41.390168,2.114287,,0,,0
2.1905,1905,"Balmes - Pelai",41.386174,2.166637,,0,,0
2.1906,1906,"Arnau d'Oms - La Jota",41.429313,2.177416,,0,,0
2.1907,1907,"Ramon Albó - Alexandre Galí",41.42665,2.177281,,0,,0
2.1908,1908,"Meridiana - Navas de Tolosa",41.414468,2.186738,,0,,0
2.1910,1910,"Via Favència - Pablo Iglesias",41.446364,2.18277,,0,,0
2.1911,1911,"Ctra de Vallvidrera al Tibidabo",41.424128,2.119182,,0,,0
2.1912,1912,"Mare de Déu de Port - Foneria",41.360594,2.14033,,0,,0
2.1913,1913,"Alts Forns-Mare de Déu de Port",41.359782,2.142398,,0,,0
2.1914,1914,"Foc - Mare de Déu de Port",41.358417,2.144037,,0,,0
2.1915,1915,"Ferrocarrils Catalans - Foc",41.359464,2.14448,,0,,0
2.1916,1916,"Ferrocarrils Catalans - Alts Forns",41.360311,2.143043,,0,,0
2.1917,1917,"Ferrocarrils Catalans - Aviador Duran",41.361352,2.141306,,0,,0
2.1919,1919,"Av Baix Llobregat - St Martí de l'Erm",41.373772,2.073974,,0,,0
2.1920,1920,"Josep Trueta - Sant Martí de L'Erm",41.37282,2.071313,,0,,0
2.1921,1921,"Sant Martí de l'Erm - Josep Trueta",41.371721,2.0706,,0,,0
2.1922,1922,"Av Barcelona - Extremadura",41.369312,2.073349,,0,,0
2.1925,1925,"Piferrer - Deià",41.432115,2.177744,,0,,0
2.1926,1926,"Piferrer - Pintor Alsamora",41.434481,2.1797,,0,,0
2.1927,1927,"Av Rio de Janeiro - Pg Valldaura",41.43893,2.18159,,0,,0
2.1928,1928,"Pl Àngel Pestaña",41.44101,2.179245,,0,,0
2.1930,1930,"Av Rio de Janeiro - Baltasar Gracián",41.440098,2.182542,,0,,0
2.1932,1932,"Pg Andreu Nin - Rosselló i Porcel",41.434251,2.181472,,0,,0
2.1933,1933,"Pg Ciutat de Mallorca - Av Rio de Janeiro",41.432491,2.180522,,0,,0
2.1935,1935,"Escultor Ordóñez - Pl de Sóller",41.433608,2.174932,,0,,0
2.1937,1937,"Metro Maragall",41.424602,2.176973,,0,,0
2.1938,1938,"Mitre - Doctor Fleming",41.394848,2.133718,,0,,0
2.1939,1939,"Mitre - Ganduxer",41.398898,2.133885,,0,,0
2.1940,1940,"Mitre - Ganduxer",41.398752,2.133459,,0,,0
2.1941,1941,"Mitre - Doctor Fleming",41.394782,2.133414,,0,,0
2.1943,1943,"Virgili - Pl de Montserrat Roca i Baltà",41.431303,2.19342,,0,,0
2.1944,1944,"Pl de l'Abat Escarré",41.430178,2.191416,,0,,0
2.1950,1950,"La Fosca - Chafarinas",41.448162,2.183251,,0,,0
2.1954,1954,"Segura - Anoia",41.362561,2.140537,,0,,0
2.1955,1955,"Segura - Foneria",41.362895,2.141768,,0,,0
2.1958,1958,"Borbó - Costa i Cuxart",41.428293,2.174566,,0,,0
2.1959,1959,"Pl de les Roquetes",41.448399,2.176179,,0,,0
2.1960,1960,"Parc del Pla de Fornells",41.448503,2.176362,,0,,0
2.1961,1961,"Fabra i Puig - Pg  Urrutia",41.436643,2.164549,,0,,0
2.1963,1963,"Fabra i Puig - Pg  Urrutia",41.436819,2.164489,,0,,0
2.1970,1970,"Rambla del Brasil - Roger",41.377266,2.129587,,0,,0
2.1973,1973,"Radi - Ctra del Prat",41.362647,2.134807,,0,,0
2.1975,1975,"Av Pablo Picasso - Marià Fortuny",41.354973,2.087146,,0,,0
2.1976,1976,"Badal - Av Carrilet",41.366569,2.134046,,0,,0
2.1980,1980,"Estació Av del Carrilet",41.358299,2.103502,,0,,0
2.1982,1982,"Av Paral·lel",41.374825,2.152836,,0,,0
2.1983,1983,"Carrer A - Carrer número 2",41.342374,2.144295,,0,,0
2.1984,1984,"Escorial - Sant Lluís",41.406345,2.162298,,0,,0
2.1985,1985,"Sant Salvador - Massens",41.408397,2.155967,,0,,0
2.1988,1988,"Valldoreix - Verdi",41.410068,2.151494,,0,,0
2.1989,1989,"Av del Coll del Portell - Sostres",41.410661,2.151408,,0,,0
2.1990,1990,"Sostres - Baixada de la Glòria",41.412239,2.149738,,0,,0
2.1991,1991,"Arnold Schönberg - Av del Coll del Portell",41.41293,2.149311,,0,,0
2.1992,1992,"Av del Coll del Portell - Baixada de la Glòria",41.412099,2.150325,,0,,0
2.1993,1993,"Av del Coll del Portell - Rambla de Mercedes",41.411183,2.151865,,0,,0
2.1994,1994,"Albigesos - Verdi",41.410535,2.150596,,0,,0
2.1995,1995,"Verdi - Valldoreix",41.409268,2.151549,,0,,0
2.1996,1996,"Pl Rovira i Trias",41.407585,2.158781,,0,,0
2.1998,1998,"Ctra Cementiri Collserola - Residència Joan XXIII",41.465157,2.156006,,0,,0
2.1999,1999,"Residència Joan XXIII",41.464957,2.155989,,0,,0
2.2004,2004,"Oblit - direcció Font d'en Fargas",41.419321,2.177609,,0,,0
2.2005,2005,"Rambla Volart - Flors de Maig",41.417625,2.174418,,0,,0
2.2006,2006,"La Bisbal - Verge de Montserrat",41.418186,2.172766,,0,,0
2.2007,2007,"Aguilar - Alt de Pedrell",41.425489,2.169482,,0,,0
2.2008,2008,"Aguilar - Montserrat de Casanovas",41.423092,2.169784,,0,,0
2.2009,2009,"Garriga i Roca - Sales Ferrer",41.421174,2.169872,,0,,0
2.2010,2010,"Garriga i Roca - Ercilla",41.419783,2.170683,,0,,0
2.2012,2012,"Rambla de la Muntanya - Vinyals",41.420136,2.175347,,0,,0
2.2020,2020,"Torrent de les Flors - Sant Lluís",41.406152,2.160202,,0,,0
2.2021,2021,"Pl Joanic",41.404928,2.16248,,0,,0
2.2022,2022,"Granja Vella - Av Martí i Codolar",41.426859,2.147947,,0,,0
2.2023,2023,"Calderón de la Barca - Ctra del Carmel",41.419015,2.157319,,0,,0
2.2024,2024,"Calderón de la Barca - Alcalde de Zalamea",41.420629,2.15684,,0,,0
2.2025,2025,"Segimon - L'Alguer",41.420952,2.155096,,0,,0
2.2026,2026,"Fastenrath - L'Hortal",41.421921,2.152672,,0,,0
2.2028,2028,"Camí dels Àngels",41.421661,2.148969,,0,,0
2.2029,2029,"Parc de La Creueta del Coll",41.421295,2.146272,,0,,0
2.2034,2034,"Metro Penitents",41.417448,2.140595,,0,,0
2.2037,2037,"Sigüenza - La Murtra",41.42326,2.152613,,0,,0
2.2038,2038,"Sigüenza - Ramon Rocafull",41.424123,2.154142,,0,,0
2.2039,2039,"Mercat del Carmel",41.423571,2.155356,,0,,0
2.2040,2040,"Conca de Tremp - Agudells",41.422319,2.156492,,0,,0
2.2041,2041,"Conca de Tremp - Arbós",41.421284,2.157319,,0,,0
2.2042,2042,"Conca de Tremp - Queixans",41.420023,2.15751,,0,,0
2.2043,2043,"Manso - Comte Borrell",41.3774,2.161458,,0,,0
2.2044,2044,"Riera Alta - Nou de Dulce",41.38034,2.163744,,0,,0
2.2045,2045,"Riera Alta - Erasme de Janer",41.380478,2.16646,,0,,0
2.2046,2046,"Rambla del Raval - Aurora",41.379306,2.168224,,0,,0
2.2047,2047,"Rambla del Raval - Sant Pau",41.37763,2.170218,,0,,0
2.2048,2048,"Av Drassanes - Arc del Teatre",41.376628,2.173082,,0,,0
2.2049,2049,"Av Drassanes - Pl Portal de la Pau",41.376008,2.176738,,0,,0
2.2051,2051,"Metro Drassanes",41.37642,2.174801,,0,,0
2.2052,2052,"Av Drassanes - Nou de la Rambla",41.376829,2.172727,,0,,0
2.2053,2053,"Rambla del Raval - Sant Josep Oriol",41.378008,2.170526,,0,,0
2.2054,2054,"Rambla del Raval - Hospital",41.379461,2.168798,,0,,0
2.2055,2055,"Pl Joan Amades",41.381394,2.168724,,0,,0
2.2056,2056,"Pl dels Àngels",41.382657,2.16789,,0,,0
2.2057,2057,"Montalegre - Valdonzella",41.384002,2.166783,,0,,0
2.2059,2059,"Mercat de Sant Antoni",41.377342,2.161382,,0,,0
2.2061,2061,"Mare de Déu del Remei - Grases",41.373013,2.156881,,0,,0
2.2063,2063,"Elkano - Blasco de Garay",41.373174,2.162911,,0,,0
2.2064,2064,"Elkano - Poeta Cabanyes",41.37258,2.164823,,0,,0
2.2066,2066,"Vila i Vilà - Lafont",41.373897,2.169609,,0,,0
2.2068,2068,"Piquer - Cabanes",41.372842,2.170582,,0,,0
2.2069,2069,"Nou de la Rambla - Paral·lel",41.374419,2.169511,,0,,0
2.2071,2071,"Pg de Solé i Pla",41.427118,2.088599,,0,,0
2.2072,2072,"Pl Major del Rectoret",41.427377,2.09221,,0,,0
2.2074,2074,"Torrent del Rovelló - Camí del Pantà",41.419371,2.096908,,0,,0
2.2075,2075,"Torrent del Rovelló - Camí Baix del Mas Sauró",41.418243,2.094446,,0,,0
2.2076,2076,"Camí Alt Mas Sauró - Font Mossèn Cinto Verdaguer",41.417827,2.094892,,0,,0
2.2077,2077,"Camí Alt del Mas Sauró - Camí del Ciureny",41.41787,2.096494,,0,,0
2.2078,2078,"Camí del Mas Sauró",41.417083,2.096513,,0,,0
2.2079,2079,"Can Sauró",41.415907,2.095041,,0,,0
2.2080,2080,"Mas Sauró - Camí del Pebràs",41.415668,2.09283,,0,,0
2.2081,2081,"Can Sauró, direcció Mas Guimbau",41.415924,2.09518,,0,,0
2.2082,2082,"Camí del Mas Sauró, direcció Mas Guimbau",41.417056,2.096346,,0,,0
2.2083,2083,"Camí del Ciureny, direcció Mas Guimbau",41.417899,2.096575,,0,,0
2.2084,2084,"Font Mossèn Cinto Verdaguer, direcció Mas Guimbau",41.417892,2.095145,,0,,0
2.2085,2085,"Camí Baix del Mas Sauró, direcció Mas Guimbau",41.418207,2.094499,,0,,0
2.2086,2086,"Torrent del Rovelló, direcció Mas Guimbau",41.419215,2.096832,,0,,0
2.2087,2087,"FGC Les Planes",41.427192,2.091482,,0,,0
2.2088,2088,"Camí dels Verns - Camí del Mas Guimbau",41.426154,2.089765,,0,,0
2.2089,2089,"Mas Guimbau",41.428142,2.090279,,0,,0
2.2090,2090,"Mas Sauró",41.415611,2.092898,,0,,0
2.2091,2091,"Can Sauró, direcció Vallvidrera",41.415953,2.095213,,0,,0
2.2092,2092,"Camí del Mas Sauró, direcció Vallvidrera",41.417063,2.096393,,0,,0
2.2093,2093,"Camí del Ciureny, direcció Vallvidrera",41.417916,2.096507,,0,,0
2.2094,2094,"Font Mossèn Cinto Verdaguer, direcció Vallvidrera",41.417889,2.095079,,0,,0
2.2095,2095,"Camí Baix del Mas Sauró, direcció Vallvidrera",41.418342,2.094659,,0,,0
2.2096,2096,"Torrent del Rovelló, direcció Vallvidrera",41.419228,2.096853,,0,,0
2.2097,2097,"Camí del Pantà",41.418447,2.097887,,0,,0
2.2098,2098,"FGC Baixador Vallvidrera",41.419915,2.096903,,0,,0
2.2099,2099,"Camí del Sanatori - Ctra de Vallvidrera",41.421047,2.096588,,0,,0
2.2100,2100,"Major del Rectoret - Parc Municipal de Vallvidrera",41.423482,2.094752,,0,,0
2.2101,2101,"Major del Rectoret - Amarant",41.424529,2.094947,,0,,0
2.2102,2102,"Bohemis - Savina",41.425335,2.097134,,0,,0
2.2103,2103,"Savina - Pg del Magraner",41.424144,2.096608,,0,,0
2.2104,2104,"Lilà - Boix",41.425686,2.099803,,0,,0
2.2105,2105,"Lilà - Presseguer",41.428243,2.10092,,0,,0
2.2108,2108,"Major del Rectoret - Costa del Bruc",41.429895,2.094892,,0,,0
2.2109,2109,"Pl Coll de la Creu d'en Blau, direcció El Rectoret",41.433646,2.094153,,0,,0
2.2110,2110,"Major del Rectoret - Marco Polo",41.429643,2.094852,,0,,0
2.2111,2111,"Major del Rectoret - Parsifal",41.426415,2.093843,,0,,0
2.2112,2112,"Margalló - Major del Rectoret",41.42613,2.096158,,0,,0
2.2113,2113,"Av del Rectoret - Baladre",41.425925,2.09304,,0,,0
2.2114,2114,"Av del Rectoret - Vesc",41.426127,2.092856,,0,,0
2.2115,2115,"Major del Rectoret - Margalló",41.426166,2.095857,,0,,0
2.2116,2116,"Major del Rectoret - Lohengrin",41.426541,2.09395,,0,,0
2.2117,2117,"Pl Coll de la Creu d'en Blau, direcció Vallvidrera",41.433653,2.09413,,0,,0
2.2121,2121,"Lilà - Geranis",41.42816,2.100831,,0,,0
2.2122,2122,"Lilà - Poncelles",41.425636,2.09966,,0,,0
2.2123,2123,"Savina - Poncelles",41.424173,2.096498,,0,,0
2.2124,2124,"Bohemis - Amarant",41.42542,2.097344,,0,,0
2.2125,2125,"Major del Rectoret",41.424586,2.094904,,0,,0
2.2126,2126,"Parc Municipal de Vallvidrera",41.423322,2.094755,,0,,0
2.2127,2127,"Camí del Sanatori - FGC Baixador de Vallvidrera",41.42086,2.096495,,0,,0
2.2130,2130,"Pg Maragall - Petrarca",41.42843,2.163332,,0,,0
2.2131,2131,"Rambla Marina - Av del Carrilet",41.357405,2.103001,,0,,0
2.2133,2133,"ZAL",41.322368,2.136336,,0,,0
2.2134,2134,"Llull - Jardins Gandhi",41.404422,2.206746,,0,,0
2.2135,2135,"Carrer número 3 - Carrer C",41.334112,2.135828,,0,,0
2.2136,2136,"Carrer número 3 - Carrer F",41.337347,2.127201,,0,,0
2.2137,2137,"Rambla Marina - Mercat de Bellvitge",41.350946,2.11127,,0,,0
2.2138,2138,"IES Ferran Tallada",41.420811,2.161803,,0,,0
2.2139,2139,"Garcilaso - Juan de Garay",41.422868,2.186345,,0,,0
2.2141,2141,"Turó de La Rovira",41.419693,2.159524,,0,,0
2.2142,2142,"Gran Vista",41.419972,2.159954,,0,,0
2.2143,2143,"Ctra de Vallvidrera - El Castanyer",41.425366,2.121348,,0,,0
2.2146,2146,"Pl de Mourenx",41.463421,2.168564,,0,,0
2.2147,2147,"Camèlies - Circumval·lació",41.461937,2.170552,,0,,0
2.2148,2148,"Circumval·lació - Camèlies",41.461969,2.171958,,0,,0
2.2149,2149,"Pl Tibidabo",41.421513,2.118827,,0,,0
2.2151,2151,"Pg  Taulat - Provençals",41.40485,2.2132,,0,,0
2.2154,2154,"Jericó - Pg  Vall d'Hebron",41.420794,2.139496,,0,,0
2.2155,2155,"Jericó - Romeu",41.421828,2.139023,,0,,0
2.2156,2156,"Ctra Sant Cugat - Samària",41.42192,2.138376,,0,,0
2.2157,2157,"Ctra Sant Cugat - Navata",41.420621,2.138529,,0,,0
2.2158,2158,"Ctra Sant Cugat - Gutenberg",41.418496,2.138586,,0,,0
2.2178,2178,"Tajo - Santes Creus",41.429995,2.162399,,0,,0
2.2180,2180,"Ctra del Prat - Energia",41.36061,2.134133,,0,,0
2.2184,2184,"Botànica - Salvador Espriu",41.349484,2.126134,,0,,0
2.2185,2185,"Botànica - Miguel Hernández",41.349307,2.126308,,0,,0
2.2186,2186,"Botànica - Primer de Maig",41.346588,2.120692,,0,,0
2.2187,2187,"Botànica - Motors",41.346496,2.120917,,0,,0
2.2188,2188,"Motors - Botànica",41.345491,2.116843,,0,,0
2.2189,2189,"Motors - Av Granvia",41.345188,2.116508,,0,,0
2.2190,2190,"Av Amèrica - Av Granvia",41.34988,2.11447,,0,,0
2.2194,2194,"Francesc Alegre - Verge de Montserrat",41.415722,2.167093,,0,,0
2.2195,2195,"Budapest - Gènova",41.418323,2.168095,,0,,0
2.2196,2196,"Telègraf - Doctor Cadevall",41.418511,2.169092,,0,,0
2.2197,2197,"Francesc Alegre",41.416499,2.166188,,0,,0
2.2198,2198,"França - Polònia",41.415241,2.163583,,0,,0
2.2199,2199,"Av del Coll del Portell, 74",41.411466,2.151489,,0,,0
2.2200,2200,"Pg Vall d'Hebron - Anna Piferrer",41.417831,2.139136,,0,,0
2.2203,2203,"Penedès - Priorat",41.360357,2.060456,,0,,0
2.2209,2209,"Pl de Vallvidrera",41.413052,2.104398,,0,,0
2.2210,2210,"Camí Alt del Mas Sauró",41.416477,2.096324,,0,,0
2.2211,2211,"Cami Alt del Mas Sauró, direcció Vallvidrera",41.416437,2.096388,,0,,0
2.2212,2212,"Camí Alt de Mas Sauró, direcció Mas Guimbau",41.416418,2.096345,,0,,0
2.2213,2213,"Camí del Mas Guimbau - Gatosa",41.425529,2.090086,,0,,0
2.2214,2214,"Camí del Mas Guimbau - Gespa",41.424011,2.090633,,0,,0
2.2215,2215,"Gespa - la Gatosa",41.424583,2.089628,,0,,0
2.2216,2216,"Escala de la Gatosa",41.423836,2.089776,,0,,0
2.2217,2217,"Pg de la Vimetera",41.423591,2.089268,,0,,0
2.2218,2218,"Pg de la Vimetera - Pg del Pi Forcat",41.423281,2.087371,,0,,0
2.2219,2219,"Pg del Pi Forcat - Pg d'Anna Rúbies",41.422651,2.087365,,0,,0
2.2220,2220,"Pg de la Vimetera - Escala de la Gatosa",41.423508,2.08924,,0,,0
2.2221,2221,"Gespa - Pg de la Vimetera",41.423868,2.089835,,0,,0
2.2222,2222,"Gespa",41.424551,2.089691,,0,,0
2.2223,2223,"Camí del Mas Guimbau",41.423989,2.090685,,0,,0
2.2224,2224,"Camí del Mas Guimbau - Castellví",41.425572,2.090063,,0,,0
2.2225,2225,"Santuari de la Salut",41.426088,2.089808,,0,,0
2.2227,2227,"Lisboa - Ptge de Tossa",41.429031,2.157276,,0,,0
2.2228,2228,"Ciutat d'Asunción - La Maquinista",41.44021,2.200091,,0,,0
2.2230,2230,"Sant Ramon de Penyafort - Ferrer Bassa",41.418352,2.217301,,0,,0
2.2231,2231,"Pedrell - Rambla del Carmel",41.423101,2.158646,,0,,0
2.2232,2232,"Pl de l'Estatut",41.429787,2.155892,,0,,0
2.2233,2233,"Rambla del Carmel - Llobregós",41.424671,2.15777,,0,,0
2.2234,2234,"Llobregós - Pg Maragall",41.427766,2.163267,,0,,0
2.2235,2235,"Llobregós - Torrent del Carmel",41.426517,2.160296,,0,,0
2.2239,2239,"Pg de Valldaura - Canigó",41.437463,2.155959,,0,,0
2.2241,2241,"Pg de Valldaura - Av Estatut de Catalunya",41.436536,2.154003,,0,,0
2.2243,2243,"Moll de Barcelona",41.372422,2.179764,,0,,0
2.2246,2246,"Parc Logístic",41.340593,2.124734,,0,,0
2.2247,2247,"Rambla Josep M Jujol - Riera d'en Nofre",41.367458,2.051473,,0,,0
2.2248,2248,"Av Barcelona - Rius i Taulet",41.366745,2.060741,,0,,0
2.2249,2249,"Carrer número 2 - Carrer número 62",41.343942,2.137891,,0,,0
2.2250,2250,"Carrer número 2",41.343816,2.137981,,0,,0
2.2251,2251,"Parc Logístic, anada",41.343002,2.131018,,0,,0
2.2252,2252,"Parc Logístic, tornada",41.34276,2.130877,,0,,0
2.2254,2254,"Av Can Corts - Merçè Rodoreda",41.361393,2.064912,,0,,0
2.2255,2255,"Segura - Escales del Polvorí",41.363737,2.140599,,0,,0
2.2256,2256,"Segura - Guadalquivir",41.363854,2.140598,,0,,0
2.2259,2259,"Diagonal - Llull",41.410605,2.215477,,0,,0
2.2260,2260,"Metro Canyelles",41.441949,2.166796,,0,,0
2.2261,2261,"Via Favència - Pl Karl Marx",41.440732,2.163441,,0,,0
2.2262,2262,"Diagonal - Rambla del Poblenou",41.405229,2.195405,,0,,0
2.2264,2264,"Pg  Taulat - Provençals",41.404938,2.212377,,0,,0
2.2265,2265,"Pg  Taulat - Diagonal Mar",41.407029,2.215327,,0,,0
2.2266,2266,"Pg  Taulat - Diagonal Mar",41.406987,2.215481,,0,,0
2.2268,2268,"Llull - Diagonal Mar",41.409148,2.213034,,0,,0
2.2269,2269,"Via Favència - Barri Canyelles",41.442965,2.169598,,0,,0
2.2270,2270,"Numància - Av Roma",41.381212,2.141343,,0,,0
2.2271,2271,"Av Barcelona - Bon Viatge",41.364757,2.058728,,0,,0
2.2273,2273,"Rambla Josep M Jujol - Montjuïc",41.362295,2.056885,,0,,0
2.2274,2274,"Rambla Josep M Jujol - Baltasar d'Espanya",41.364388,2.054345,,0,,0
2.2275,2275,"Major - Pl Constitució",41.36687,2.054931,,0,,0
2.2279,2279,"Pg Reina Elisenda - Av JV Foix",41.398388,2.11854,,0,,0
2.2281,2281,"Av de Vallbona - CAP Ctat Meridiana",41.46093,2.180708,,0,,0
2.2282,2282,"Av de Vallbona",41.458368,2.18395,,0,,0
2.2287,2287,"Via Augusta - Doctor Roux",41.397839,2.131274,,0,,0
2.2288,2288,"Via Augusta - Alt de Gironella",41.397849,2.133599,,0,,0
2.2289,2289,"Pujades - Provençals",41.407749,2.208708,,0,,0
2.2293,2293,"Sardenya - Pg  Pujades",41.391813,2.188536,,0,,0
2.2294,2294,"Ramon Trias Fargas - Doctor Trueta",41.390161,2.190742,,0,,0
2.2295,2295,"Icària - Parc Carles I",41.388387,2.193876,,0,,0
2.2298,2298,"Júpiter",41.428811,2.098831,,0,,0
2.2299,2299,"Pl de la Tulipa - Satèl·lits",41.427898,2.096495,,0,,0
2.2300,2300,"Orellana - Passatge Ossa Major",41.429397,2.096145,,0,,0
2.2301,2301,"Orellana, direcció El Rectoret",41.431629,2.096658,,0,,0
2.2302,2302,"Orellana, direcció Vallvidrera",41.431631,2.096545,,0,,0
2.2303,2303,"Orellana",41.429388,2.096085,,0,,0
2.2304,2304,"Pl de la Tulipa - Traviata",41.427801,2.0965,,0,,0
2.2305,2305,"Júpiter - Lilà",41.428814,2.098968,,0,,0
2.2306,2306,"Pg Marítim",41.385226,2.196301,,0,,0
2.2307,2307,"Doctor Font Quer - Taronguers",41.367155,2.162499,,0,,0
2.2308,2308,"Doctor Font Quer - Can Valero",41.36584,2.160554,,0,,0
2.2309,2309,"Av Miramar - Pl Dante",41.369002,2.165788,,0,,0
2.2310,2310,"Av Miramar - Pl Carlos Ibáñez",41.370255,2.168879,,0,,0
2.2311,2311,"Museu Nacional - Museu Etnològic",41.368603,2.156169,,0,,0
2.2315,2315,"Castell",41.36507,2.167015,,0,,0
2.2317,2317,"Via Sant Jordi",41.355732,2.157602,,0,,0
2.2318,2318,"Sagrat Cor",41.355337,2.149972,,0,,0
2.2319,2319,"Via Sant Oleguer",41.354466,2.154093,,0,,0
2.2320,2320,"Via Santa Eulàlia",41.352876,2.152714,,0,,0
2.2321,2321,"Metro Torras i Bages",41.442753,2.190861,,0,,0
2.2322,2322,"Gran de Sant Andreu - Palomar",41.442239,2.188217,,0,,0
2.2323,2323,"Pl Miquel Casablancas",41.43971,2.18642,,0,,0
2.2324,2324,"Av de l'Estadi - Vivers",41.367099,2.15838,,0,,0
2.2325,2325,"Can Valero - Pg del Migdia",41.362708,2.161237,,0,,0
2.2326,2326,"Pl de la Sardana",41.367923,2.168871,,0,,0
2.2327,2327,"Torre Baró",41.45843,2.184011,,0,,0
2.2328,2328,"Av Vallbona - Estació RENFE",41.461285,2.180417,,0,,0
2.2330,2330,"Av Rasos de Peguera - Pl Roja",41.461572,2.178494,,0,,0
2.2331,2331,"Av Rasos de Peguera - Costabona",41.460281,2.176682,,0,,0
2.2332,2332,"Vallcivera - Moixeró",41.459538,2.17678,,0,,0
2.2335,2335,"València - Rogent",41.409345,2.185612,,0,,0
2.2336,2336,"Pg  Zona Franca - Foc",41.356714,2.14134,,0,,0
2.2341,2341,"Museu Nacional - Museu Etnològic",41.368543,2.156073,,0,,0
2.2342,2342,"Mandri - Maó",41.40399,2.133123,,0,,0
2.2343,2343,"Mandri - Bigai",41.40509,2.13192,,0,,0
2.2345,2345,"València - Viladomat",41.383576,2.151303,,0,,0
2.2348,2348,"Llobregós - Lluís Marià Vidal",41.424643,2.156594,,0,,0
2.2349,2349,"Dante Alighieri - Pantà de Tremp",41.425536,2.153675,,0,,0
2.2350,2350,"Lisboa - Av Estatut de Catalunya",41.429243,2.157518,,0,,0
2.2351,2351,"Tajo - Baixada Mercat",41.42973,2.160138,,0,,0
2.2353,2353,"Porrera - Canigó",41.436838,2.158556,,0,,0
2.2354,2354,"Hedilla - Porrera",41.436787,2.159626,,0,,0
2.2355,2355,"Pg Universal - Pg de Valldaura",41.438522,2.159918,,0,,0
2.2356,2356,"Cementiri d'Horta",41.440127,2.156043,,0,,0
2.2362,2362,"Santa Amèlia - Capità Arenas",41.394194,2.124073,,0,,0
2.2363,2363,"Gran Via - Radi",41.363662,2.13444,,0,,0
2.2367,2367,"Ptge Garrofers - Verge de Montserrat",41.418572,2.173158,,0,,0
2.2368,2368,"Les Corts - Arizala",41.379349,2.123384,,0,,0
2.2371,2371,"Av de l'Onze de Setembre - Roure",41.318334,2.082034,,0,,0
2.2372,2372,"Canudas - Muntades",41.316915,2.07569,,0,,0
2.2373,2373,"de la Selva - Osona",41.31638,2.07223,,0,,0
2.2374,2374,"Canudas - Av Onze de Setembre",41.316137,2.075522,,0,,0
2.2375,2375,"Av Onze de Setembre - Riu Anoia",41.318126,2.082043,,0,,0
2.2383,2383,"Ronda de Dalt - Av J V Foix",41.401461,2.11421,,0,,0
2.2384,2384,"Santa Amèlia",41.393075,2.121975,,0,,0
2.2385,2385,"Av J V Foix - Pedró de la Creu",41.39558,2.120108,,0,,0
2.2387,2387,"Av J V Foix - Pg Reina Elisenda",41.398098,2.119219,,0,,0
2.2388,2388,"Av J V Foix - Monestir",41.399586,2.116707,,0,,0
2.2389,2389,"Av J V Foix - Monestir",41.399066,2.117388,,0,,0
2.2390,2390,"Av J.V. Foix - Pg Reina Elisenda",41.398025,2.119089,,0,,0
2.2392,2392,"Cardenal Reig - Arístides Maillol",41.378978,2.118717,,0,,0
2.2394,2394,"Tiana - Campins",41.44764,2.200951,,0,,0
2.2395,2395,"Aneto - Montmajor",41.432829,2.170243,,0,,0
2.2398,2398,"Pg d'Urrutia - Cistellet",41.435849,2.165687,,0,,0
2.2399,2399,"Riera Blanca - Les Corts",41.377488,2.121418,,0,,0
2.2400,2400,"Pg d'Urrutia - Rocabruna",41.435331,2.167642,,0,,0
2.2401,2401,"Montsant - Cadí",41.433461,2.170264,,0,,0
2.2402,2402,"Montmajor - Pg de la Peira",41.432281,2.170503,,0,,0
2.2404,2404,"Cartellà - Pl d'Àlvaro Cunqueiro",41.428681,2.168528,,0,,0
2.2405,2405,"Cartellà - Amílcar",41.427684,2.172659,,0,,0
2.2406,2406,"Meridiana - Fabra i Puig",41.429673,2.183676,,0,,0
2.2407,2407,"Narcís Monturiol - Beat Oriol",41.491588,2.181306,,0,,0
2.2408,2408,"Ctra BV 1411 - Pau Casals",41.49322,2.178036,,0,,0
2.2409,2409,"Bach - Ctra BV 1411",41.490877,2.177751,,0,,0
2.2410,2410,"Av Ferreria - Química",41.485035,2.177943,,0,,0
2.2412,2412,"Bach - Beat Oriol",41.491333,2.178032,,0,,0
2.2414,2414,"Narcís Monturiol - Indústria",41.491793,2.181227,,0,,0
2.2415,2415,"Garriga i Roca - Verge de Montserrat",41.419075,2.171905,,0,,0
2.2416,2416,"Pl Karl Marx - Via Favència",41.440258,2.164001,,0,,0
2.2418,2418,"Cristóbal de Moura - Parc del Besòs",41.42043,2.218757,,0,,0
2.2420,2420,"Cristóbal de Moura - La Catalana",41.422663,2.221781,,0,,0
2.2421,2421,"Torrassa - Mare de Déu del Carme",41.426201,2.225424,,0,,0
2.2422,2422,"Torrassa - Mare de Déu del Carme",41.426294,2.225239,,0,,0
2.2430,2430,"Pg Sant Gervasi - Jardins de la Tamarita",41.410307,2.136564,,0,,0
2.2431,2431,"Cister - Melilla",41.411227,2.132984,,0,,0
2.2432,2432,"Quatre Camins - Teodor Roviralta",41.412018,2.1331,,0,,0
2.2433,2433,"Esperança - Vilana",41.405046,2.128548,,0,,0
2.2434,2434,"Esperança - Marquesa de Vilallonga",41.403955,2.126414,,0,,0
2.2435,2435,"Iradier - Planella",41.40536,2.124587,,0,,0
2.2436,2436,"Planella - Marquesa de Vilallonga",41.406771,2.126215,,0,,0
2.2437,2437,"Bellesguard - Immaculada",41.408357,2.128032,,0,,0
2.2438,2438,"Bellesguard - Valeta d'Arquer",41.409087,2.12643,,0,,0
2.2439,2439,"Balsareny - Vista Bella",41.411613,2.129405,,0,,0
2.2440,2440,"Jesús Maria - Quatre Camins",41.410536,2.131587,,0,,0
2.2441,2441,"Jesús Maria - Pg Sant Gervasi",41.409656,2.132949,,0,,0
2.2442,2442,"Esteve Terradas - Josep Jover",41.413894,2.140514,,0,,0
2.2443,2443,"Parc Sanitari Pere Virgili",41.415052,2.139808,,0,,0
2.2445,2445,"Collserola - Carlos Pirozzini",41.417201,2.135016,,0,,0
2.2446,2446,"Enric Clarassó - Collserola",41.418248,2.133909,,0,,0
2.2453,2453,"Anna Piferrer - Av Vallcarca",41.417403,2.140708,,0,,0
2.2454,2454,"Pg Andreu Nin - Parc Esportiu Can Dragó",41.434222,2.181472,,0,,0
2.2455,2455,"Pg Ciutat de Mallorca - Piferrer",41.432926,2.178672,,0,,0
2.2456,2456,"Pintor Alsamora - Piferrer",41.435137,2.17921,,0,,0
2.2457,2457,"Escultor Ordóñez - Pintor Alsamora",41.435034,2.175878,,0,,0
2.2458,2458,"Pg de Santa Madrona",41.368543,2.157981,,0,,0
2.2459,2459,"Pg de Santa Madrona - Font del Gat",41.368435,2.158042,,0,,0
2.2461,2461,"Àvila - Tànger",41.400141,2.191106,,0,,0
2.2464,2464,"Badajoz - Almogàvers",41.400431,2.193147,,0,,0
2.2465,2465,"Viver - Av Elies Pagès",41.428671,2.131449,,0,,0
2.2466,2466,"Viver - Cànoves",41.428999,2.129819,,0,,0
2.2467,2467,"Cànoves 105",41.427981,2.128761,,0,,0
2.2468,2468,"Cànoves - Sant Genís",41.427771,2.129981,,0,,0
2.2469,2469,"Cànoves 49",41.427495,2.131999,,0,,0
2.2470,2470,"Cànoves - Penitents",41.427163,2.133884,,0,,0
2.2471,2471,"Cànoves - Natzaret",41.426775,2.134971,,0,,0
2.2472,2472,"Av Elies Pagès - Pl Madrona Prat",41.427537,2.134798,,0,,0
2.2473,2473,"Rbla Prim - Santander",41.426136,2.199934,,0,,0
2.2474,2474,"Trav de Gràcia - Pl Gal·la Placídia",41.398715,2.153747,,0,,0
2.2475,2475,"Trav de Gràcia - Mariana Pineda",41.400693,2.156869,,0,,0
2.2476,2476,"Trav de Gràcia - Torrent de l'Olla",41.401552,2.15823,,0,,0
2.2477,2477,"Trav de Gràcia - Torrent d'En Vidalet",41.403189,2.160822,,0,,0
2.2478,2478,"Trav de Gràcia - Torrent de les Flors",41.404015,2.16217,,0,,0
2.2479,2479,"Encarnació - Escorial",41.407526,2.161776,,0,,0
2.2480,2480,"Encarnació - Torrent de les Flors",41.406217,2.159707,,0,,0
2.2481,2481,"Pl de la Virreina",41.404669,2.157247,,0,,0
2.2482,2482,"Ros de Olano - Torrent de l'Olla",41.402153,2.156638,,0,,0
2.2483,2483,"Ros de Olano - Gran de Gràcia",41.401095,2.154769,,0,,0
2.2484,2484,"Bretón de los Herreros - Aulestià i Pijoan",41.402347,2.151759,,0,,0
2.2485,2485,"Pl Mossèn Clapés - Gran de Sant Andreu",41.441959,2.187736,,0,,0
2.2486,2486,"Gran de Sant Andreu - Campeny",41.439078,2.188695,,0,,0
2.2487,2487,"Gran de Sant Andreu - Servet",41.437147,2.189506,,0,,0
2.2491,2491,"Garcilaso - Meridiana",41.422888,2.186161,,0,,0
2.2492,2492,"Garcilaso - La Sagrera",41.422641,2.189182,,0,,0
2.2493,2493,"Mare de Déu de Port - Pl Teresa Claramunt",41.362192,2.139499,,0,,0
2.2494,2494,"Mare de Déu de Port - Sant Eloi",41.357545,2.143703,,0,,0
2.2495,2495,"Mare de Déu de Port - Cisell",41.355878,2.145435,,0,,0
2.2501,2501,"Alumini - Ctra del Prat",41.359218,2.13292,,0,,0
2.2502,2502,"Mineria - Mare de Déu de Port",41.364874,2.138295,,0,,0
2.2503,2503,"Mare de Déu de Port - Mineria",41.364003,2.139195,,0,,0
2.2504,2504,"Foneria - Energia",41.359498,2.136278,,0,,0
2.2507,2507,"Garigliano - Almansa",41.446141,2.173969,,0,,0
2.2510,2510,"Llobera - Baixada del Pedregar",41.449449,2.175218,,0,,0
2.2511,2511,"Escales de Llobera",41.44987,2.17643,,0,,0
2.2512,2512,"Cantera - Llobera",41.449226,2.177585,,0,,0
2.2515,2515,"Aiguablava - Sa Tuna",41.451671,2.186287,,0,,0
2.2516,2516,"Av Carrilet - Vigo",41.35842,2.103798,,0,,0
2.2517,2517,"Rambla Marina - Cobalt",41.355637,2.104084,,0,,0
2.2530,2530,"Gran Via Carles III - Pl Reina Maria Cristina",41.386861,2.126875,,0,,0
2.2532,2532,"Carles III - Les Corts",41.382146,2.128466,,0,,0
2.2533,2533,"Francesc Alegre - Budapest",41.41655,2.16629,,0,,0
2.2536,2536,"Pg de Montjuïc - Nou de La Rambla",41.37195,2.16722,,0,,0
2.2537,2537,"Constitució - Badal",41.36925,2.133513,,0,,0
2.2539,2539,"Panorama - Labèrnia",41.419071,2.16542,,0,,0
2.2540,2540,"Cànoves - Viver",41.429309,2.128639,,0,,0
2.2541,2541,"Diagonal - Metro Zona Universitària",41.384782,2.11293,,0,,0
2.2542,2542,"Zona Universitària - Escola T S d'Enginyeria",41.385077,2.115683,,0,,0
2.2543,2543,"Diagonal - Metro Palau Reial",41.38585,2.118733,,0,,0
2.2547,2547,"Gran Via - Ca n'Oliva",41.420297,2.209146,,0,,0
2.2548,2548,"Cardenal Reig - Poblet",41.37761,2.11562,,0,,0
2.2550,2550,"Mini Estadi del F C Barcelona",41.380693,2.117823,,0,,0
2.2551,2551,"Cardenal Reig - Pintor Tapiró",41.378962,2.118054,,0,,0
2.2552,2552,"Escorial - Mare de Déu de la Salut",41.411739,2.157136,,0,,0
2.2553,2553,"Pare Jacint Alegre - Sant Cugat del Vallès",41.412065,2.155572,,0,,0
2.2554,2554,"Marianao - Mercedes",41.412667,2.154634,,0,,0
2.2555,2555,"Olot - Marianao",41.413526,2.153397,,0,,0
2.2557,2557,"Parc de Cervantes - Av d'Esplugues",41.385483,2.104894,,0,,0
2.2558,2558,"Pg Joan de Borbó - Moll de Catalunya",41.370684,2.187572,,0,,0
2.2559,2559,"Pg Joan de Borbó - Moll de Catalunya",41.370738,2.187718,,0,,0
2.2564,2564,"Sot del Migdia",41.359883,2.150627,,0,,0
2.2565,2565,"Pg Olímpic - Palau Sant Jordi",41.361808,2.15387,,0,,0
2.2566,2566,"Jardí Botànic",41.362746,2.156699,,0,,0
2.2567,2567,"Av de l'Estadi - Pg Olímpic",41.366521,2.157458,,0,,0
2.2568,2568,"Radas - Magalhäes",41.37263,2.160615,,0,,0
2.2569,2569,"Pg de l'Exposició - Sant Isidre",41.370322,2.158603,,0,,0
2.2571,2571,"Av Remolar - Av Onze de Setembre",41.319702,2.09069,,0,,0
2.2572,2572,"Santander - Via Trajana",41.428176,2.202435,,0,,0
2.2573,2573,"Ctra de l'Església - Camí del Faig",41.417655,2.107103,,0,,0
2.2574,2574,"Ctra de l'Església",41.418008,2.107397,,0,,0
2.2575,2575,"Av Santa Coloma - Pg Llorenç Serra",41.450509,2.206815,,0,,0
2.2577,2577,"Argentina - Bernat Metge",41.421474,2.212754,,0,,0
2.2579,2579,"Carrer número 2 - Carrer número 61",41.34276,2.140869,,0,,0
2.2581,2581,"Vivers Tres Pins",41.366374,2.158748,,0,,0
2.2582,2582,"Ctra d'Horta - Cotxeres TB",41.439572,2.154344,,0,,0
2.2583,2583,"Parc de La Maquinista",41.435751,2.194654,,0,,0
2.2584,2584,"Pl John F Kennedy",41.410114,2.137032,,0,,0
2.2585,2585,"Ronda Guineueta Vella - Juan Ramón Jiménez",41.442855,2.162305,,0,,0
2.2586,2586,"John M. Keynes - Diagonal",41.386272,2.116581,,0,,0
2.2588,2588,"Ciutat d'Asunción - Pg de l'Havana",41.437766,2.200535,,0,,0
2.2589,2589,"Sao Paulo - República Dominicana",41.438766,2.196485,,0,,0
2.2590,2590,"Sao Paulo - Ciutat d'Asunción",41.439046,2.199207,,0,,0
2.2592,2592,"Ciutat d'Asunción - Fra Juníper Serra",41.435221,2.200969,,0,,0
2.2593,2593,"Pg de l'Havana - Ciutat d'Asunción",41.438673,2.199386,,0,,0
2.2594,2594,"Parc de la Maquinista",41.436779,2.196138,,0,,0
2.2595,2595,"Ctra de Ribes - Ronda de Dalt",41.446106,2.189065,,0,,0
2.2599,2599,"Fra Juníper Serra - Formiga",41.434114,2.201896,,0,,0
2.2600,2600,"Fra Juníper Serra",41.433237,2.203279,,0,,0
2.2601,2601,"Fra Juníper Serra - Santander",41.43272,2.204854,,0,,0
2.2604,2604,"Av Rasos de Peguera - Complex Esportiu Can Cuiàs",41.459859,2.168467,,0,,0
2.2605,2605,"Perafita",41.459522,2.16891,,0,,0
2.2606,2606,"Alumini - Alts Forns",41.356086,2.13519,,0,,0
2.2607,2607,"Larrard - Rambla Mercedes",41.412448,2.153883,,0,,0
2.2610,2610,"Les Agudes 140",41.460484,2.171967,,0,,0
2.2616,2616,"Mercat Mare de Déu de la Mercè",41.430396,2.17273,,0,,0
2.2617,2617,"Les Drassanes",41.374786,2.176747,,0,,0
2.2618,2618,"Les Drassanes",41.374799,2.177143,,0,,0
2.2619,2619,"Ctra de Ribes - Via Favència",41.447955,2.189627,,0,,0
2.2620,2620,"Ctra de Ribes - Tossal",41.448119,2.189624,,0,,0
2.2622,2622,"Camí de l'Església - Rembrandt",41.434136,2.153398,,0,,0
2.2623,2623,"Petúnies - Circumval·lació",41.46314,2.17149,,0,,0
2.2625,2625,"Ganduxer - Via Augusta",41.398468,2.134904,,0,,0
2.2626,2626,"Pg  Joan de Borbó - Pl  del Mar",41.374129,2.188249,,0,,0
2.2627,2627,"Lilà - Júpiter",41.429367,2.100689,,0,,0
2.2628,2628,"Lilà - Menta",41.429466,2.100864,,0,,0
2.2629,2629,"Ctra de Vallvidrera - St Cugat",41.425867,2.120542,,0,,0
2.2630,2630,"Tossal - Pl Josep Andreu i Abelló",41.448727,2.190692,,0,,0
2.2631,2631,"Av Barcelona - John F Kennedy",41.370592,2.076024,,0,,0
2.2635,2635,"Av Baix Llobregat - Av Barcelona",41.371825,2.076187,,0,,0
2.2636,2636,"Av Baix Llobregat - Àngel Guimerà",41.371495,2.077089,,0,,0
2.2637,2637,"Av Baix Llobregat - Cirerers",41.369522,2.07914,,0,,0
2.2638,2638,"Av Baix Llobregat - Enric Granados",41.37018,2.078688,,0,,0
2.2648,2648,"Meridiana - Riera d'Horta",41.427666,2.184637,,0,,0
2.2653,2653,"Comte d'Urgell - Buenos Aires",41.39178,2.145634,,0,,0
2.2655,2655,"Collserola - Josep Garí",41.416248,2.136103,,0,,0
2.2656,2656,"Vall Park",41.424782,2.135158,,0,,0
2.2658,2658,"Pg  Marítim - Hospital del Mar",41.384326,2.19532,,0,,0
2.2660,2660,"Argentina - Gran Via",41.421294,2.212629,,0,,0
2.2662,2662,"Segura - Jocs del 92",41.363199,2.145485,,0,,0
2.2664,2664,"Aeroport - Mercaderies (Sentit Terminal T1)",41.301439,2.068817,,0,,0
2.2665,2665,"Indústria - Freser",41.415183,2.18178,,0,,0
2.2667,2667,"Av Barcelona - Major",41.363394,2.058332,,0,,0
2.2668,2668,"Sant Antoni Maria Claret - Pg Maragall",41.416159,2.180865,,0,,0
2.2669,2669,"Villar - Pg Maragall",41.416367,2.180076,,0,,0
2.2670,2670,"Rambla Volart - Trobador",41.416212,2.178562,,0,,0
2.2672,2672,"Torrent de Cal Notari",41.440242,2.150288,,0,,0
2.2674,2674,"Mestre Dalmau - Feliu i Codina",41.43379,2.161694,,0,,0
2.2675,2675,"Congrés - Doctor Letamendi",41.436963,2.160895,,0,,0
2.2678,2678,"Pg Universal - Doctor Letamendi",41.437635,2.161452,,0,,0
2.2681,2681,"Pg Reina Elisenda - Av JV Foix",41.398486,2.118457,,0,,0
2.2683,2683,"Rambla Prim - Metro La Pau",41.422787,2.204613,,0,,0
2.2685,2685,"Cardenal Reig - Av St Ramon Nonat",41.378374,2.117137,,0,,0
2.2689,2689,"Diagonal Mar",41.410283,2.218309,,0,,0
2.2690,2690,"Av Madrid - Joan Güell",41.380694,2.131584,,0,,0
2.2695,2695,"Enric Bargés - Numància",41.381575,2.140207,,0,,0
2.2697,2697,"Pl Santa Magdalena, 16",41.377474,2.087869,,0,,0
2.2698,2698,"Espronceda - Marroc",41.408679,2.2001,,0,,0
2.2699,2699,"Espronceda - Pere IV",41.406595,2.202842,,0,,0
2.2700,2700,"Espronceda - Jardins Josep Trueta",41.404384,2.205776,,0,,0
2.2701,2701,"Palomar - Gran de Sant Andreu",41.441964,2.188648,,0,,0
2.2704,2704,"Pg de Solé i Pla - Pollancres",41.427196,2.088845,,0,,0
2.2705,2705,"Quarters - Av Riera de Sant Cugat",41.486244,2.181827,,0,,0
2.2706,2706,"Pont d'Esplugues - Av de Cornellà",41.376368,2.087634,,0,,0
2.2712,2712,"Foc - Metal·lúrgia",41.353259,2.134424,,0,,0
2.2716,2716,"Av de l'Exèrcit - Trias i Giró",41.386067,2.111525,,0,,0
2.2717,2717,"Camp Municipal de futbol Vallbona",41.463996,2.185424,,0,,0
2.2718,2718,"Pl Primer de Maig",41.466135,2.186002,,0,,0
2.2721,2721,"Àvila - Almogàvers",41.398484,2.19328,,0,,0
2.2722,2722,"Vapor - Treball",41.486833,2.179079,,0,,0
2.2723,2723,"Badajoz - Llull",41.397598,2.196875,,0,,0
2.2724,2724,"Larrard - Mare de Déu de la Salut",41.410953,2.155677,,0,,0
2.2725,2725,"Coll i Alentorn - Basses d'Horta",41.424382,2.143261,,0,,0
2.2728,2728,"Pl Karl Marx - Ronda Guineueta Vella",41.440523,2.163226,,0,,0
2.2730,2730,"Àvila - Pujades",41.396636,2.195681,,0,,0
2.2731,2731,"Àvila - Ramon Turró",41.395121,2.19767,,0,,0
2.2733,2733,"Hospital de Sant Pau",41.415135,2.173498,,0,,0
2.2734,2734,"Sant Quintí - Hospital de St Pau",41.415123,2.175794,,0,,0
2.2735,2735,"Sant Quintí - Sant Antoni Maria Claret",41.413892,2.177423,,0,,0
2.2736,2736,"Navas de Tolosa - Indústria",41.416606,2.185022,,0,,0
2.2737,2737,"Navas de Tolosa - Meridiana",41.414711,2.187542,,0,,0
2.2738,2738,"Navas de Tolosa - Clot",41.41339,2.189308,,0,,0
2.2740,2740,"Bilbao - Pere IV",41.405217,2.200198,,0,,0
2.2741,2741,"Pujades - Llacuna",41.400473,2.199013,,0,,0
2.2742,2742,"Meridiana - Clot",41.406205,2.187123,,0,,0
2.2743,2743,"Clot - Aragó",41.411974,2.189929,,0,,0
2.2744,2744,"Muntanya - Mallorca",41.4117,2.185546,,0,,0
2.2745,2745,"Eterna Memòria - Coll i Vehí",41.413215,2.182015,,0,,0
2.2746,2746,"Sant Antoni Maria Claret - Dos de Maig",41.412332,2.175754,,0,,0
2.2747,2747,"Fundació Puigvert",41.412927,2.172119,,0,,0
2.2748,2748,"Mas Casanovas - Cartagena",41.413717,2.171588,,0,,0
2.2750,2750,"St. Ramon de Penyafort - Manuel Fernández Márquez",41.415012,2.219692,,0,,0
2.2752,2752,"CEIP Mercè Rodoreda",41.445948,2.186473,,0,,0
2.2753,2753,"Av Rio de Janeiro - Tissó",41.441873,2.184616,,0,,0
2.2758,2758,"Ronda Guinardó - Torre dels Pardals",41.422174,2.177326,,0,,0
2.2759,2759,"Oblit - Doctor Valls",41.420204,2.178837,,0,,0
2.2760,2760,"Oblit - direcció Dos de Maig",41.418876,2.176989,,0,,0
2.2761,2761,"Carles Pirozzini - Collserola",41.416577,2.134612,,0,,0
2.2762,2762,"Enginyeria - Marquès de Lamadrid",41.417721,2.132658,,0,,0
2.2763,2763,"Enginyeria - Collserola",41.417913,2.131263,,0,,0
2.2764,2764,"Collserola - August Font",41.418234,2.130838,,0,,0
2.2765,2765,"Collserola - Salvador Alarma",41.418539,2.132135,,0,,0
2.2766,2766,"Salvador Alarma - August Font",41.418991,2.133969,,0,,0
2.2767,2767,"Josep M Jujol - August Font",41.419739,2.133616,,0,,0
2.2768,2768,"Vallpar - Josep M Jujol",41.420191,2.134876,,0,,0
2.2769,2769,"Vallpar - Navata",41.419247,2.13579,,0,,0
2.2770,2770,"Ticià - Penitents",41.418328,2.136627,,0,,0
2.2771,2771,"Ticià - Palma de St Genís",41.417612,2.13762,,0,,0
2.2772,2772,"Bilbao - Pujades",41.403535,2.202486,,0,,0
2.2773,2773,"Mare de Déu del Coll - Lorda",41.421006,2.149526,,0,,0
2.2775,2775,"Pl Espanya",41.374565,2.148751,,0,,0
2.2776,2776,"Trav de Dalt - Riera de Can Toda",41.412393,2.159227,,0,,0
2.2777,2777,"CAP Larrard",41.410576,2.15635,,0,,0
2.2778,2778,"Maurici Vilomara - Montserrat de Casanovas",41.423199,2.162912,,0,,0
2.2779,2779,"Maurici Vilomara - Doctor Coll",41.42291,2.163675,,0,,0
2.2780,2780,"Maurici Vilomara - Penyal",41.421957,2.164168,,0,,0
2.2781,2781,"Penyal - Pl Font d'en Fargas",41.422314,2.163641,,0,,0
2.2782,2782,"Penyal - Doctor Bové",41.42147,2.163597,,0,,0
2.2783,2783,"Penyal - Font de la Mulassa",41.421709,2.163592,,0,,0
2.2784,2784,"Penyal",41.422264,2.163566,,0,,0
2.2785,2785,"Pl de la Font d'en Fargas",41.42185,2.164279,,0,,0
2.2786,2786,"Maurici Vilomara - Doctor Coll",41.422768,2.16407,,0,,0
2.2787,2787,"Pg Font d'en Fargas - Pintor Pradilla",41.423337,2.165296,,0,,0
2.2788,2788,"Josep M Jujol - Vallpar",41.420968,2.133986,,0,,0
2.2789,2789,"Dr Letamendi - Canigó",41.435441,2.159913,,0,,0
2.2790,2790,"Eduard Toda - Rectoria",41.433822,2.159852,,0,,0
2.2791,2791,"Concepció Arenal - Olesa",41.421996,2.183859,,0,,0
2.2792,2792,"Mercat Mare de Déu de Montserrat",41.446213,2.17907,,0,,0
2.2793,2793,"Pla de Fornells - Jaume Pinent",41.44639,2.176684,,0,,0
2.2794,2794,"Romaní - Les Torres",41.44657,2.175161,,0,,0
2.2798,2798,"Rodrigo Caro - Artesania",41.44709,2.171453,,0,,0
2.2799,2799,"Quarter de Simancas - Almansa",41.445381,2.173301,,0,,0
2.2800,2800,"Av República Argentina - Vallcarca",41.411415,2.144566,,0,,0
2.2801,2801,"Via Barcino - Vicenç Montal",41.453973,2.193639,,0,,0
2.2804,2804,"Pl del Complex Funerari, direcció Recinte",41.470016,2.155865,,0,,0
2.2805,2805,"Pl del Complex Funerari, direcció Barcelona",41.470211,2.156017,,0,,0
2.2806,2806,"Pg Sant Jordi - Pau Casals",41.494018,2.178981,,0,,0
2.2808,2808,"Zona Franca - Carrer número 4",41.331288,2.128471,,0,,0
2.2809,2809,"Carrer número 4",41.332218,2.125814,,0,,0
2.2810,2810,"Zona Franca - Mercabarna",41.333426,2.122373,,0,,0
2.2812,2812,"Carrer K - Carrer número 40",41.331815,2.111067,,0,,0
2.2813,2813,"Carrer K - Carrer número 6",41.328857,2.111918,,0,,0
2.2819,2819,"Av Remolar - Av Apel·les Mestre",41.326449,2.08703,,0,,0
2.2821,2821,"Av Remolar - Rda de Ponent",41.325935,2.086967,,0,,0
2.2827,2827,"Mercabarna - Entrada El Prat",41.328678,2.112304,,0,,0
2.2828,2828,"Carrer K",41.331783,2.111252,,0,,0
2.2831,2831,"Concepció Arenal - Juan de Garay",41.420557,2.183852,,0,,0
2.2832,2832,"Juan de Garay - Navas de Tolosa",41.418549,2.181793,,0,,0
2.2833,2833,"Pg de Gràcia - Ronda de Sant Pere",41.388804,2.16921,,0,,0
2.2834,2834,"Almogàvers - Joan d'Àustria",41.39614,2.188613,,0,,0
2.2835,2835,"Moianès - Cuyàs",41.371254,2.142347,,0,,0
2.2836,2836,"Magòria",41.369643,2.141705,,0,,0
2.2837,2837,"Mossèn Amadeu Oller - Gran Via",41.36834,2.138889,,0,,0
2.2838,2838,"Metro Penitens",41.417545,2.140354,,0,,0
2.2840,2840,"Esteve Terradas",41.413297,2.140949,,0,,0
2.2841,2841,"Gustavo Bécquer - Av Vallcarca",41.41577,2.142615,,0,,0
2.2842,2842,"Baró de la Barre - Gustavo Bécquer",41.414368,2.144395,,0,,0
2.2843,2843,"Tirso - Mora la Nova",41.419009,2.150976,,0,,0
2.2844,2844,"Tirso - Pl Laguna Lanau",41.417764,2.150112,,0,,0
2.2845,2845,"Aldea - Font del Remei ",41.418504,2.149996,,0,,0
2.2846,2846,"Duran i Borrell - Baixada de Sant Marià",41.41804,2.149319,,0,,0
2.2847,2847,"Torrent del Remei - Riu de la Plata",41.416153,2.148343,,0,,0
2.2848,2848,"Sant Eudald - Mora d'Ebre",41.414797,2.147175,,0,,0
2.2849,2849,"Sant Eudald - Pl Mons",41.413657,2.145277,,0,,0
2.2850,2850,"Cardedeu - Mare de Déu del Coll",41.415296,2.145261,,0,,0
2.2855,2855,"Gaspar Cassadó - Can Caralleu",41.400607,2.113285,,0,,0
2.2856,2856,"Esports - Ronda de Dalt",41.400857,2.112179,,0,,0
2.2858,2858,"Major de Can Caralleu - Ptge Blada",41.402174,2.110293,,0,,0
2.2859,2859,"CEIP Costa i Llobera",41.401999,2.109106,,0,,0
2.2861,2861,"Pins de Can Caralleu - Lliçà",41.403157,2.10848,,0,,0
2.2862,2862,"Pins de Can Caralleu",41.403846,2.108573,,0,,0
2.2863,2863,"Pl de Mossèn Miquel Vall i Mundó",41.403153,2.10977,,0,,0
2.2864,2864,"Torrent de Can Caralleu - Major de Can Caralleu",41.401806,2.112006,,0,,0
2.2869,2869,"Pedró de la Creu - Gresolet",41.39761,2.12198,,0,,0
2.2870,2870,"Av J V Foix - Mendel",41.397178,2.120184,,0,,0
2.2872,2872,"Saragossa - Ronda General Mitre",41.40568,2.143706,,0,,0
2.2876,2876,"Lucà - Craywinckel",41.411048,2.138915,,0,,0
2.2878,2878,"Craywinckel - Hurtado",41.411747,2.138929,,0,,0
2.2879,2879,"Hurtado - Espinoi",41.410644,2.140716,,0,,0
2.2880,2880,"Marmellà - Hurtado",41.409849,2.141319,,0,,0
2.2881,2881,"Solanes - Bertran",41.41017,2.140087,,0,,0
2.2882,2882,"Caire - República Argentina",41.411446,2.14105,,0,,0
2.2883,2883,"Portolà - Ferran Puig",41.410773,2.142817,,0,,0
2.2884,2884,"Ferran Puig - Jardins Turó del Putxet",41.410053,2.143977,,0,,0
2.2885,2885,"Ferran Puig - Agramunt",41.408927,2.145169,,0,,0
2.2886,2886,"Ballester - Ferran Puig",41.407332,2.146348,,0,,0
2.2888,2888,"Putxet - Cadis",41.406452,2.143974,,0,,0
2.2890,2890,"Pg Vall d'Hebron - Trueba",41.423414,2.141806,,0,,0
2.2891,2891,"Av Martí Codolar - Coll i Alentorn",41.424709,2.14784,,0,,0
2.2892,2892,"Av Tibidabo - Pg Sant Gervasi",41.410756,2.136531,,0,,0
2.2893,2893,"Av Tibidabo - Mas Yebra",41.41131,2.136338,,0,,0
2.2895,2895,"Carles Riba-Josep Maria Lledó",41.411659,2.123677,,0,,0
2.2899,2899,"Josep Pla-Pallars",41.411222,2.212756,,0,,0
2.2901,2901,"Josep Pla - Cristóbal de Moura",41.413806,2.209337,,0,,0
2.2902,2902,"Josep Pla - Perú",41.416328,2.206079,,0,,0
2.2903,2903,"Selva de Mar - Perú",41.414205,2.201844,,0,,0
2.2904,2904,"Selva de Mar - Pere IV",41.411211,2.205799,,0,,0
2.2906,2906,"Selva de Mar - Llull",41.408127,2.209802,,0,,0
2.2907,2907,"Pg  Taulat - Bac de Roda",41.402743,2.209682,,0,,0
2.2911,2911,"Av Jordà - Hospital St Rafael",41.425109,2.141409,,0,,0
2.2912,2912,"Judea - Av Jordà",41.425039,2.140801,,0,,0
2.2914,2914,"Pg Andreu Nin - Av Rio de Janeiro",41.4325,2.180897,,0,,0
2.2915,2915,"Vèlia - Pl Garrigó",41.429057,2.180692,,0,,0
2.2916,2916,"Rambla de Badal - Constitució",41.368248,2.132978,,0,,0
2.2920,2920,"Francesc Cambó - Gral Alvarez de Castro",41.386353,2.177896,,0,,0
2.2923,2923,"Placeta del Comerç",41.389981,2.180403,,0,,0
2.2925,2925,"Pl Pons Clerch",41.386496,2.181858,,0,,0
2.2926,2926,"Princesa - Montcada",41.385258,2.180294,,0,,0
2.2927,2927,"Ample - Fusteria",41.381255,2.18057,,0,,0
2.2928,2928,"Pl de la Mercè",41.379508,2.179321,,0,,0
2.2929,2929,"Pl del Duc de Medinaceli",41.37835,2.178538,,0,,0
2.2930,2930,"Torres i Amat - Ptge St Bernat",41.384417,2.164674,,0,,0
2.2931,2931,"Mont d'Orsà - Pl Vallvidrera",41.412948,2.104229,,0,,0
2.2933,2933,"Ronda de Dalt - Cister",41.413221,2.130465,,0,,0
2.2935,2935,"Camí Fontfreda - València",41.493156,2.189429,,0,,0
2.2936,2936,"Castelló - Rigola",41.494585,2.187135,,0,,0
2.2943,2943,"Castelló - Eivissa",41.494396,2.186241,,0,,0
2.2944,2944,"Camí Fontfreda - Castelló",41.493575,2.189317,,0,,0
2.2946,2946,"Espronceda - Guipúscoa",41.414149,2.192836,,0,,0
2.2947,2947,"Espronceda - Gran Via",41.4115,2.196362,,0,,0
2.2949,2949,"Gran Via - St Martí Provençals",41.415806,2.203737,,0,,0
2.2950,2950,"Beret - Teide",41.432141,2.16767,,0,,0
2.2951,2951,"Cadi - Pg de la Peira",41.431762,2.16918,,0,,0
2.2952,2952,"Constitució - Jocs Florals",41.369868,2.136601,,0,,0
2.2953,2953,"Capella de Can Caralleu - Saüc",41.402323,2.10737,,0,,0
2.2954,2954,"Camí de Lliçà",41.402363,2.106685,,0,,0
2.2955,2955,"Agrupacions números 5 i 6",41.458959,2.158234,,0,,0
2.2956,2956,"Agrupacions números 3 i 4",41.456752,2.157843,,0,,0
2.2957,2957,"Agrupació número 11",41.454968,2.160387,,0,,0
2.2958,2958,"Agrupacions números 7 i 8",41.457473,2.158552,,0,,0
2.2959,2959,"Agrupació número 8",41.458933,2.159407,,0,,0
2.2960,2960,"Agrupacions números 8 i 9",41.457933,2.161757,,0,,0
2.2961,2961,"Agrupació número 10",41.457891,2.160635,,0,,0
2.2962,2962,"Agrupacions números 9 i 10",41.456883,2.162312,,0,,0
2.2963,2963,"Agrupació número 9",41.457551,2.163897,,0,,0
2.2965,2965,"Av Granvia - Natzaret",41.359724,2.128407,,0,,0
2.2966,2966,"Amadeu Torner",41.356535,2.124157,,0,,0
2.2968,2968,"Amadeu Torner",41.355497,2.123853,,0,,0
2.2970,2970,"Av Granvia - Física",41.359303,2.128855,,0,,0
2.2974,2974,"Tanatori de la Vall d'Hebron",41.440477,2.154804,,0,,0
2.2976,2976,"Fastenrath - Arenys",41.42187,2.142898,,0,,0
2.2977,2977,"Llobera",41.449991,2.17788,,0,,0
2.2978,2978,"Rodrigo Caro - Llobera",41.449152,2.17453,,0,,0
2.2979,2979,"Rodrigo Caro - Fornells",41.448489,2.173766,,0,,0
2.2980,2980,"Rodrigo Caro - Ojeda",41.447733,2.173178,,0,,0
2.2984,2984,"Cardenal Reig - Pisuerga",41.376845,2.114238,,0,,0
2.2985,2985,"Aiguablava - Tamariu",41.450115,2.184057,,0,,0
2.2987,2987,"Fastenrath - Llobregós",41.421636,2.1515,,0,,0
2.2989,2989,"Mare de Déu de Port - Cantunis",41.351831,2.155833,,0,,0
2.2990,2990,"Ricart - Paral·lel",41.374355,2.158264,,0,,0
2.2992,2992,"Pl Pius XII - Av Pedralbes",41.387796,2.122521,,0,,0
2.2993,2993,"Diagonal - Roger de Flor",41.399316,2.170982,,0,,0
2.2995,2995,"Alfons XIII - Josep M de Sagarra",41.441119,2.231639,,0,,0
2.2996,2996,"Av Marquès de Montroig - Pl  Pres. Tarradellas",41.440867,2.234111,,0,,0
2.2997,2997,"Alfons XIII - Pau Claris",41.441061,2.231218,,0,,0
2.2998,2998,"Alfons XIII - Sant Lluc",41.43949,2.228244,,0,,0
2.2999,2999,"Foc - Sot del Migdia",41.35997,2.150425,,0,,0
2.3000,3000,"Palau Sant Jordi",41.361585,2.152954,,0,,0
2.3001,3001,"Estació RENFE - Andana 2",41.331022,2.090552,,0,,0
2.3002,3002,"Pedrera del Mussol - Marbre",41.361364,2.147852,,0,,0
2.3004,3004,"Pg del Pi Forcat - Pg del Grèvol",41.42259,2.087255,,0,,0
2.3005,3005,"Pg del Grèvol",41.421732,2.086604,,0,,0
2.3006,3006,"Pg del Grèvol - Camí de Can Castellví",41.420098,2.084957,,0,,0
2.3007,3007,"Pg del Grèvol - Pg del Pi Forcat",41.421727,2.086949,,0,,0
2.3008,3008,"CAP Les Hortes",41.371784,2.16679,,0,,0
2.3009,3009,"CAP Vallvidrera",41.413993,2.103914,,0,,0
2.3010,3010,"Centre Cívic Vallvidrera",41.415218,2.10263,,0,,0
2.3011,3011,"CEIP Nabí",41.416789,2.101237,,0,,0
2.3012,3012,"Reis Catòlics - Llicorella",41.415006,2.102779,,0,,0
2.3013,3013,"Mercat de Vallvidrera",41.414071,2.103697,,0,,0
2.3014,3014,"Camí de Vallvidrera - Camí de Cal Totxo",41.420525,2.119084,,0,,0
2.3016,3016,"Peníscola - Pare Manjón",41.453421,2.19071,,0,,0
2.3017,3017,"Turó de La Trinitat - Ausona",41.452883,2.191415,,0,,0
2.3018,3018,"Turó de La Trinitat - Foradada",41.451127,2.190698,,0,,0
2.3019,3019,"Turó de La Trinitat - Madriguera",41.449911,2.190158,,0,,0
2.3020,3020,"Montagut - Vila-seca",41.434063,2.168249,,0,,0
2.3021,3021,"Espinagua - Darnius",41.435154,2.166252,,0,,0
2.3023,3023,"Ildefons Cerdà - Ciutat de la Justícia",41.363809,2.133837,,0,,0
2.3024,3024,"Av Granvia - Alhambra",41.361903,2.131302,,0,,0
2.3025,3025,"Mireia - Finestrelles",41.451138,2.189396,,0,,0
2.3026,3026,"Mireia - Ausona",41.452335,2.18955,,0,,0
2.3029,3029,"Pl  Rosa dels Vents",41.368316,2.18779,,0,,0
2.3030,3030,"Pg de l'Escullera",41.369148,2.187946,,0,,0
2.3032,3032,"Ronda St Pere - Pg de Gràcia",41.388357,2.170859,,0,,0
2.3033,3033,"Av del Baix Llobregat - Miquel Roncali",41.353276,2.065013,,0,,0
2.3034,3034,"Av del Baix Llobregat - Verge de Montserrat",41.350291,2.07046,,0,,0
2.3035,3035,"Av del Baix Llobregat - Fivaller",41.349392,2.076231,,0,,0
2.3036,3036,"Av Pablo Picasso - Av del Maresme",41.352299,2.088774,,0,,0
2.3037,3037,"Anoia - Arquitecte Calzada",41.357833,2.078102,,0,,0
2.3038,3038,"Av del Baix Llobregat - St Antoni M Claret",41.367782,2.08033,,0,,0
2.3040,3040,"Ctra de St Boi - Pl Quatre Camins",41.355552,2.064627,,0,,0
2.3041,3041,"Aeroport - Terminal T2-C (Sentit Terminal T1)",41.305002,2.081808,,0,,0
2.3043,3043,"Aeroport - Terminal T1",41.287688,2.073001,,0,,0
2.3046,3046,"Anna Piferrer - Betània",41.41734,2.140863,,0,,0
2.3047,3047,"Aeroport - Terminal T2-A B (Sentit Terminal T1)",41.302872,2.075775,,0,,0
2.3048,3048,"Aeroport - Terminal T2-B (Sentit Terminal T1)",41.304126,2.07926,,0,,0
2.3050,3050,"Indústria - Guinardó",41.416029,2.182948,,0,,0
2.3051,3051,"La Murtra - Sta Albina",41.42412,2.150737,,0,,0
2.3052,3052,"Castellbisbal - Sta Rosalia",41.421367,2.144276,,0,,0
2.3092,3092,"Escolapi Càncer - Metro Torre Baró/Vallbona",41.458839,2.180449,,0,,0
2.3097,3097,"Centre d'Activitats Vallbona",41.463194,2.183867,,0,,0
2.3098,3098,"Av l'Alzinar - Tapioles",41.46297,2.183644,,0,,0
2.3114,3114,"Tirso de Molina - Av St Ferran",41.351742,2.085428,,0,,0
2.3115,3115,"Tirso de Molina - Av de la Fama",41.350433,2.081375,,0,,0
2.3116,3116,"Av Baix Llobregat - Joan Fiveller",41.349549,2.075816,,0,,0
2.3117,3117,"Av Baix Llobregat - Ptge Francesc Layret",41.350268,2.070835,,0,,0
2.3118,3118,"Av Baix Llobregat - Miguel de Roncali",41.353245,2.065197,,0,,0
2.3119,3119,"Ctra de St Boi - Campoamor",41.355342,2.06453,,0,,0
2.3120,3120,"Pl de l'Esglèsia",41.356209,2.070049,,0,,0
2.3121,3121,"Av dels Alps - Ctra d'Esplugues",41.356297,2.073194,,0,,0
2.3122,3122,"Ctra d'Esplugues - Catalunya",41.358619,2.072177,,0,,0
2.3123,3123,"Ctra de l'Hospitalet - Vallès",41.355121,2.083343,,0,,0
2.3124,3124,"Av St Ferran - Marià Fortuny",41.353526,2.084651,,0,,0
2.3125,3125,"Metro Tarragona",41.378467,2.145255,,0,,0
2.3126,3126,"Pl dels Països Catalans - Estació de Sants",41.379787,2.141088,,0,,0
2.3130,3130,"Ctra d'Esplugues - Pl Prat de la Riba",41.357803,2.072666,,0,,0
2.3131,3131,"Ctra d'Esplugues - Rbla Anselm Clavé",41.356101,2.071882,,0,,0
2.3133,3133,"Sta Amèlia - Eduard Conde",41.392823,2.121692,,0,,0
2.3134,3134,"Sta Amèlia - Or",41.393802,2.123563,,0,,0
2.3135,3135,"Jacint Verdaguer  -  Josep Trueta",41.373761,2.071302,,0,,0
2.3136,3136,"Av Baix Llobregat - Jacint Verdaguer",41.373858,2.073608,,0,,0
2.3137,3137,"Ctra de St Joan Despí - Ctra de St Boi",41.356876,2.065722,,0,,0
2.3138,3138,"Ctra de St Joan Despí - Terra Alta",41.36,2.062427,,0,,0
2.3140,3140,"Pl Volateria - Canudas",41.318841,2.074251,,0,,0
2.3141,3141,"Pg  Lluís Companys - Almogàvers",41.391189,2.181295,,0,,0
2.3147,3147,"Av Catalunya - Estanislau Abadal",41.498007,2.184564,,0,,0
2.3148,3148,"Av Catalunya - Ramon i Cajal",41.497267,2.184036,,0,,0
2.3150,3150,"Joan Miró - Frederic Mompou",41.499883,2.180203,,0,,0
2.3151,3151,"Joan Miró - Camí de Can Cabanyes",41.497532,2.178288,,0,,0
2.3153,3153,"Ferrer i Guàrdia - Puigcerdà",41.493789,2.184407,,0,,0
2.3154,3154,"Pla de Matabous - Alacant",41.493418,2.184989,,0,,0
2.3155,3155,"Ctra BV 1411 - Tagamanent",41.493072,2.181137,,0,,0
2.3157,3157,"Bach - Pg St Jordi",41.494002,2.177471,,0,,0
2.3158,3158,"Pg d'Urrutia - Dr Pi i Molist",41.434765,2.170872,,0,,0
2.3159,3159,"Nil - Dr Pi i Molist",41.43417,2.171707,,0,,0
2.3160,3160,"St Iscle - Travau",41.434251,2.170281,,0,,0
2.3162,3162,"Praga - Rda Guinardó",41.412367,2.164262,,0,,0
2.3163,3163,"Via Favència - Pg Valldaura",41.44025,2.163984,,0,,0
2.3166,3166,"Pl de Joan Peiró",41.378404,2.138972,,0,,0
2.3167,3167,"Pl dels Països Catalans - St Antoni",41.379468,2.141436,,0,,0
2.3168,3168,"Pl dels Països Catalans",41.379971,2.142641,,0,,0
2.3173,3173,"Petúnies - Circumval·lació",41.463353,2.171268,,0,,0
2.3174,3174,"Diagonal - Complex Esportiu Universitari",41.38408,2.111707,,0,,0
2.3175,3175,"Bonaplata",41.39604,2.124158,,0,,0
2.3176,3176,"Bonaplata - Pedró de la Creu",41.397195,2.122048,,0,,0
2.3178,3178,"Clos de St Francesc- Pg Reina Elisenda de Montcada",41.399326,2.120568,,0,,0
2.3180,3180,"Teide - Fabra i Puig",41.430184,2.169114,,0,,0
2.3181,3181,"Via Favència - Rda de Dalt",41.446932,2.185259,,0,,0
2.3182,3182,"Av Catalunya - Frederic Mompou",41.498528,2.184724,,0,,0
2.3184,3184,"Teodor Roviralta - Manuel Ramon",41.414362,2.130033,,0,,0
2.3185,3185,"Carles Riba - Bellesguard",41.412336,2.125969,,0,,0
2.3187,3187,"Pl Bifurcació",41.482279,2.16902,,0,,0
2.3189,3189,"Ronda de Dalt - Pl de la Central",41.414354,2.133304,,0,,0
2.3190,3190,"Pujades - Roc Boronat",41.400355,2.198857,,0,,0
2.3191,3191,"Josep Maria Lledó - Bellesguard",41.41079,2.124829,,0,,0
2.3197,3197,"Aeroport - Mercaderies",41.301548,2.068091,,0,,0
2.3203,3203,"Renaixença - Vinya",41.418112,2.177165,,0,,0
2.3204,3204,"Villar - Xiprer",41.416985,2.178031,,0,,0
2.3205,3205,"Xiprer - Vinya",41.417978,2.179004,,0,,0
2.3207,3207,"Peníscola - Ausona",41.453371,2.190551,,0,,0
2.3208,3208,"Pg Maragall - Sta Joaquina Vedruna",41.42111,2.179985,,0,,0
2.3210,3210,"Pl del Nou - Estany",41.353419,2.141551,,0,,0
2.3211,3211,"Plom - Ferro",41.352676,2.139329,,0,,0
2.3212,3212,"Acer - Plom",41.351745,2.136789,,0,,0
2.3213,3213,"Acer - Arnes",41.35034,2.138123,,0,,0
2.3214,3214,"Metal·lúrgia - Motors",41.34935,2.137333,,0,,0
2.3215,3215,"Marina - Trav de Gràcia",41.409057,2.16855,,0,,0
2.3216,3216,"Alcalde de Móstoles - Guinardó",41.410983,2.166022,,0,,0
2.3217,3217,"Joan d'Alòs - Miret i Sans",41.393221,2.108969,,0,,0
2.3218,3218,"Abadessa Olzet - Montevideo",41.394881,2.108742,,0,,0
2.3219,3219,"Panamà - Abadessa Olzet",41.395548,2.107364,,0,,0
2.3220,3220,"Av Pearson - Ptge Ametllers",41.393174,2.104366,,0,,0
2.3221,3221,"Pg Vall d'Hebron - Granja Vella",41.427775,2.143402,,0,,0
2.3222,3222,"Palau Reial",41.385832,2.117936,,0,,0
2.3223,3223,"Pl Reina Maria Cristina",41.387834,2.125799,,0,,0
2.3224,3224,"Padilla - Túnel de la Rovira",41.412898,2.167563,,0,,0
2.3225,3225,"Gornal",41.353128,2.119632,,0,,0
2.3226,3226,"Guinardó - Lepant",41.412212,2.167491,,0,,0
2.3227,3227,"Rda Guinardó-Castillejos",41.413519,2.170365,,0,,0
2.3229,3229,"Guinardó - Parc de les Aigües",41.412261,2.1664,,0,,0
2.3231,3231,"Marina - Monumental",41.399367,2.180753,,0,,0
2.3232,3232,"Capità Arenas - Maria Cristina",41.388963,2.126615,,0,,0
2.3233,3233,"ETS d'Arquitectura",41.384838,2.113992,,0,,0
2.3234,3234,"Pl. Pius XII",41.386586,2.120894,,0,,0
2.3236,3236,"Gran Via - Pl Espanya",41.375671,2.149598,,0,,0
2.3237,3237,"Tarragona - Pl Espanya",41.375987,2.148778,,0,,0
2.3241,3241,"Pg de St Joan - Ausiàs March",41.392401,2.178678,,0,,0
2.3242,3242,"Les Corts - Prat d'En Rull",41.388516,2.13787,,0,,0
2.3243,3243,"Esteve Terradas - Parc Sanitari Pere Virgili",41.415257,2.139222,,0,,0
2.3244,3244,"Parc Sanitari Pere Virgili",41.415143,2.140043,,0,,0
2.3245,3245,"Esteve Terradas - Pl Alfonso Comín",41.415363,2.138463,,0,,0
2.3246,3246,"Pl Espanya - Centre Comercial Las Arenas",41.375579,2.149056,,0,,0
2.3247,3247,"Gran Via - Pl  Espanya",41.375495,2.150187,,0,,0
2.3248,3248,"Av Reina Maria Cristina - Pl de l'Univers",41.37371,2.150183,,0,,0
2.3250,3250,"Pedrera del Mussol - Can Clos",41.361089,2.147967,,0,,0
2.3251,3251,"Pg Olímpic - Av de l'Estadi",41.365718,2.157295,,0,,0
2.3252,3252,"Estadi Olímpic",41.365198,2.157467,,0,,0
2.3253,3253,"Vivers",41.366473,2.158018,,0,,0
2.3254,3254,"Cementiri de Montjuïc",41.353169,2.155309,,0,,0
2.3255,3255,"Pallars - Ciutat de Granada",41.40033,2.196783,,0,,0
2.3256,3256,"Roc Boronat - Doctor Trueta",41.397689,2.201096,,0,,0
2.3257,3257,"Llacuna - Ramon Turró",41.39874,2.202142,,0,,0
2.3262,3262,"Marina - Monumental",41.399574,2.180795,,0,,0
2.3263,3263,"Sarrià",41.403922,2.114582,,0,,0
2.3264,3264,"Els Vergós",41.396483,2.12629,,0,,0
2.3265,3265,"Pg Sant Joan Bosco",41.394893,2.126818,,0,,0
2.3266,3266,"Pg  Sant Joan Bosco - Prat de la Riba",41.392926,2.129376,,0,,0
2.3267,3267,"Constança",41.389283,2.134843,,0,,0
2.3268,3268,"Av Sarrià",41.391426,2.132746,,0,,0
2.3269,3269,"Av Sarrià - Prat de la Riba",41.392524,2.130705,,0,,0
2.3270,3270,"Cartagena - Av Gaudí",41.411504,2.173992,,0,,0
2.3271,3271,"Joan Miró - Av Europa",41.496372,2.177711,,0,,0
2.3273,3273,"Joan Miró - Salvador Dalí",41.497553,2.178513,,0,,0
2.3274,3274,"Joan Miró - Victòria dels Àngels",41.499727,2.180289,,0,,0
2.3275,3275,"Baró St Lluís - Polònia",41.415618,2.164259,,0,,0
2.3276,3276,"Torre Dulac - Tenerife",41.416368,2.163766,,0,,0
2.3277,3277,"Joan Miró - Consell de Cent",41.495013,2.17734,,0,,0
2.3281,3281,"Lloret de Mar - Eduard Toda",41.435657,2.157288,,0,,0
2.3282,3282,"Sant Adrià - Josep Soldevila",41.434234,2.192854,,0,,0
2.3283,3283,"Segre-Parellada",41.43334,2.192702,,0,,0
2.3284,3284,"Segre - Borriana",41.430929,2.194826,,0,,0
2.3286,3286,"Ernest Lluch",41.376342,2.112068,,0,,0
2.3288,3288,"Vall d'Aran - Rda de Ponent",41.32844,2.086733,,0,,0
2.3289,3289,"Vall d'Aran - Av del Remolar",41.328366,2.086883,,0,,0
2.3290,3290,"Felip Díaz Sandino (Sentit T2) ",41.298064,2.055583,,0,,0
2.3291,3291,"Av de l'Aeroport (Sentit T1)",41.299696,2.054485,,0,,0
2.3293,3293,"Pg Sant Joan Bosco",41.394524,2.127503,,0,,0
2.3294,3294,"Foc - Ferrocarrils Catalans",41.358401,2.143859,,0,,0
2.3295,3295,"Via Favència - Metro Canyelles",41.441563,2.165766,,0,,0
2.3300,3300,"Ctra de la Marina - Lo Gaiter del Llobregat ",41.329224,2.098503,,0,,0
2.3301,3301,"Lo Gaiter del Llobregat - Les Moreres",41.331215,2.102024,,0,,0
2.3302,3302,"Parc Sanitari Pere Virgili",41.415693,2.142003,,0,,0
2.3303,3303,"Torrent del Rovelló - Camí Fredolic",41.419356,2.096888,,0,,0
2.3304,3304,"Mandri - Emancipació",41.403767,2.133148,,0,,0
2.3305,3305,"Riera Blanca - Trav de Les Corts",41.376801,2.12182,,0,,0
2.3307,3307,"Accés a l'Aeroport - Aparcament empleats T1",41.291937,2.05406,,0,,0
2.3308,3308,"La Maquinista",41.438909,2.197882,,0,,0
2.3309,3309,"Josep Soldevila - Torrent Estadella",41.434116,2.193555,,0,,0
2.3310,3310,"Josep Soldevila - Onze de Setembre",41.431707,2.195377,,0,,0
2.3312,3312,"Sant Antoni Maria Claret - Felip II",41.420146,2.18629,,0,,0
2.3313,3313,"Sant Antoni Maria Claret - Trinxant",41.416811,2.181734,,0,,0
2.3314,3314,"Còrsega - Bailèn",41.400497,2.164504,,0,,0
2.3315,3315,"Còrsega - Llúria",41.398877,2.162346,,0,,0
2.3316,3316,"Dr. Aiguader - Pl  del Gas",41.385094,2.193031,,0,,0
2.3317,3317,"Pg Taulat - Jonquera",41.400626,2.207599,,0,,0
2.3318,3318,"Pg  Taulat - Bac de Roda",41.40303,2.210784,,0,,0
2.3320,3320,"Jonquera - Pg  Taulat",41.399851,2.207531,,0,,0
2.3322,3322,"Pol. Ind. Zona Franca",41.345494,2.142764,,0,,0
2.3323,3323,"Ildefons Cerdà - Rambla Badal",41.365078,2.13574,,0,,0
2.3324,3324,"Pl  Països Catalans",41.380611,2.141537,,0,,0
2.3325,3325,"Ronda de Dalt - Av J.V.Foix",41.400912,2.114004,,0,,0
2.3326,3326,"Pas Sota Muralla - Pg  Colom",41.381145,2.182582,,0,,0
2.3328,3328,"Urquinaona",41.38855,2.172562,,0,,0
2.3329,3329,"Pas Sota Muralla - Via Laietana",41.38087,2.182746,,0,,0
2.3332,3332,"Pg  Marítim",41.384924,2.195895,,0,,0
2.3334,3334,"Carrer número 6 - Carrer A",41.322561,2.131785,,0,,0
2.3335,3335,"Feliu i Codina - Congrès",41.436074,2.162976,,0,,0
2.3336,3336,"Sant Ramon de Penyafort - Manuel Fernández Márquez",41.415814,2.219383,,0,,0
2.3337,3337,"Cristóbal de Moura - Parc del Besòs",41.419809,2.218338,,0,,0
2.3338,3338,"Cristóbal de Moura - La Catalana",41.422593,2.222062,,0,,0
2.3340,3340,"Av Pi i Margall - Ricart",41.432709,2.216041,,0,,0
2.3342,3342,"Comtes de Bell-lloc - Viriat",41.380449,2.137426,,0,,0
2.3343,3343,"Guipúscoa - Rambla Prim",41.422627,2.205765,,0,,0
2.3344,3344,"Fernando Pessoa",41.442839,2.193044,,0,,0
2.3345,3345,"Ciutat d'Asunción - Potosí",41.444393,2.199292,,0,,0
2.3346,3346,"Palomar - Fernando Pessoa",41.4424,2.193332,,0,,0
2.3347,3347,"Diagonal - Pl Llevant",41.410506,2.216299,,0,,0
2.3348,3348,"Pepe Rubianes",41.378432,2.189691,,0,,0
2.3349,3349,"Alfons XIII - Simancas",41.434992,2.220082,,0,,0
2.3350,3350,"Alfons XIII - Aribau",41.434588,2.219009,,0,,0
2.3351,3351,"Alfons XIII - Av del Maresme",41.436504,2.222934,,0,,0
2.3352,3352,"Av Alfons XIII - Andrés Segovia",41.436616,2.22282,,0,,0
2.3353,3353,"Alfons XIII - Sant Lluc",41.439376,2.228341,,0,,0
2.3356,3356,"Av de la Platja - Pont d'Eduard Maristany",41.425465,2.229546,,0,,0
2.3357,3357,"Casp - Nàpols",41.395881,2.179477,,0,,0
2.3358,3358,"Av d'Esplugues - González Tablas",41.386969,2.105771,,0,,0
2.3359,3359,"Ctra de la Marina - Av Onze de Setembre",41.322748,2.103523,,0,,0
2.3360,3360,"Ctra de la Marina - Pg Ciutat de l'Hospitalet",41.324284,2.102166,,0,,0
2.3361,3361,"Ctra de la Marina - Pablo Neruda",41.325172,2.101439,,0,,0
2.3362,3362,"Ctra de la Marina - Indústries",41.32731,2.09996,,0,,0
2.3363,3363,"Ctra de la Marina - Av Verge de Montserrat",41.327246,2.099825,,0,,0
2.3364,3364,"Ctra de la Marina - Catalunya",41.325346,2.101134,,0,,0
2.3365,3365,"Campoamor - Lloret de Mar",41.434116,2.156058,,0,,0
2.3366,3366,"Pg  Valldaura - Eduard Toda",41.436746,2.154445,,0,,0
2.3367,3367,"Porto - Pl  de l'Estatut",41.429707,2.157149,,0,,0
2.3368,3368,"Av l'Estatut de Catalunya - Campoamor",41.43512,2.153537,,0,,0
2.3369,3369,"Sant Antoni Maria Claret - Sardenya",41.406622,2.168156,,0,,0
2.3370,3370,"Marina - Diagonal",41.401742,2.178133,,0,,0
2.3371,3371,"Badajoz - Diagonal",41.403138,2.189593,,0,,0
2.3372,3372,"Felip Díaz Sandino - CLASA",41.300992,2.064359,,0,,0
2.3373,3373,"Pablo Iglesias - Salvador Espriu",41.348672,2.130752,,0,,0
2.3374,3374,"Av Joan Carles I - Botànica",41.350908,2.131426,,0,,0
2.3375,3375,"Ctra de la Marina - Pl de la Constitució",41.324155,2.102096,,0,,0
2.3376,3376,"Ctra de la Marina - Mataró",41.322608,2.103457,,0,,0
2.3377,3377,"Eduard Toldrà - Ardena",41.388535,2.105869,,0,,0
2.3378,3378,"Sepúlveda - Muntaner",41.383412,2.162684,,0,,0
2.3381,3381,"Costa i Cuxart - Felip II",41.428128,2.176096,,0,,0
2.3382,3382,"Espronceda - Ramon Turró",41.402398,2.208413,,0,,0
2.3383,3383,"Bac de Roda - Pg.Taulat",41.403262,2.209743,,0,,0
2.3384,3384,"Alfons XIII - Juan Valera",41.438101,2.225484,,0,,0
2.3385,3385,"Parc de la Maquinista",41.435582,2.196345,,0,,0
2.3386,3386,"Av Cardenal Vidal i Barraquer - Pl Botticelli",41.432762,2.151829,,0,,0
2.3387,3387,"Berenguer de Palou - Ferran Turné",41.424585,2.191736,,0,,0
2.3388,3388,"Còrsega - Pg  de Gràcia",41.397099,2.160005,,0,,0
2.3389,3389,"Estació del Nord",41.394369,2.181817,,0,,0
2.3390,3390,"Paral·lel - Floridablanca",41.37512,2.154936,,0,,0
2.3391,3391,"Pg  Sant Joan - Consell de Cent",41.397042,2.172522,,0,,0
2.3392,3392,"Homer - Escipió",41.408002,2.145065,,0,,0
2.3393,3393,"Concili de Trento - Pl  de la Pau",41.422445,2.209683,,0,,0
2.3395,3395,"Pg  Isabel II - Pla de Palau",41.382816,2.183787,,0,,0
2.3396,3396,"Pla de Palau - Av Marquès de l'Argentera",41.383472,2.183816,,0,,0
2.3397,3397,"Meridiana - Almogàvers",41.394137,2.186762,,0,,0
2.3400,3400,"Marina - Meridiana",41.395371,2.186302,,0,,0
2.3401,3401,"Marina - Almogàvers",41.395203,2.186181,,0,,0
2.3402,3402,"Meridiana - Almassora",41.452023,2.189206,,0,,0
2.3404,3404,"Borbó - Serrano",41.429171,2.17428,,0,,0
2.3405,3405,"Irlanda - Passatge d'Irlanda",41.448687,2.214587,,0,,0
2.3406,3406,"Rbla de Sant Sebastià - Irlanda",41.450684,2.212359,,0,,0
2.3407,3407,"Alfons XIII - Jumella",41.437692,2.225167,,0,,0
2.3408,3408,"Alumini - Ctra del Prat",41.35912,2.132811,,0,,0
2.3409,3409,"Alumini - Foc",41.354494,2.136153,,0,,0
2.3410,3410,"Alumini - Foc",41.354525,2.136312,,0,,0
2.3411,3411,"Camí de la Font Freda - Girona",41.490567,2.187788,,0,,0
2.3412,3412,"Camí de la Font Freda - Girona",41.49109,2.188771,,0,,0
2.3413,3413,"Provença - Larramendi",41.479585,2.188805,,0,,0
2.3414,3414,"Av de la Ribera - Larramendi",41.48028,2.189943,,0,,0
2.3417,3417,"Ronda Sant Pau - Carrer de les Flors",41.37569,2.167213,,0,,0
2.3418,3418,"Ronda Sant Pau - Paral·lel",41.375487,2.167489,,0,,0
2.3420,3420,"Sant Adrià - Biosca",41.436516,2.207089,,0,,0
2.3421,3421,"Química - Av. Ferreria",41.485726,2.176645,,0,,0
2.3422,3422,"Vallespir - Pl  del Centre",41.381977,2.135296,,0,,0
2.3423,3423,"Av Rio de Janeiro - Cementiri de Sant Andreu",41.436821,2.180517,,0,,0
2.3424,3424,"Muntaner - Bisbe Sivilla",41.404463,2.135984,,0,,0
2.3425,3425,"Mandri - Mitre",41.401783,2.135551,,0,,0
2.3426,3426,"Viladomat - Av Roma",41.384434,2.150906,,0,,0
2.3427,3427,"Pg Sant Gervasi - Pl John F Kennedy",41.409981,2.136384,,0,,0
2.3428,3428,"Major - Riera d'en Nofre",41.368857,2.052875,,0,,0
2.3429,3429,"Ctra BV 2001- Benzinera",41.37059,2.050412,,0,,0
2.3430,3430,"Ctra BV 2001- Onze de Setembre",41.374443,2.046264,,0,,0
2.3431,3431,"Onze de Setembre - Pg  del Canal",41.375993,2.048056,,0,,0
2.3432,3432,"Ctra BV 2001- Onze de Setembre",41.374375,2.046171,,0,,0
2.3433,3433,"Ctra BV 2001- Benzinera",41.370569,2.050316,,0,,0
2.3434,3434,"Major - Creu d'en Muntaner",41.368755,2.052854,,0,,0
2.3435,3435,"Av Sant Ildefons - Av República Argentina",41.363594,2.083662,,0,,0
2.3436,3436,"Av Cardenal Vidal i Barraquer - Berruguete",41.432765,2.151573,,0,,0
2.3438,3438,"Manso - Rocafort",41.375744,2.159265,,0,,0
2.3441,3441,"Lleida - Coronel Sanfeliu",41.322428,2.095754,,0,,0
2.3442,3442,"Carrer número 25 - Av Parc Logístic",41.341429,2.127758,,0,,0
2.3443,3443,"Gombau - Jaume Giralt",41.387183,2.179344,,0,,0
2.3445,3445,"Cementiri de l'Est - Carmen Amaya",41.394136,2.201957,,0,,0
2.3446,3446,"Av Pompeu Fabra - Ramiro de Maeztu",41.414466,2.158532,,0,,0
2.3447,3447,"Riera Can Toda - Antequera",41.413992,2.157728,,0,,0
2.3448,3448,"Riera Can Toda - Miquel i Badia",41.413098,2.158743,,0,,0
2.3449,3449,"Comte d'Urgell - Mercat del Ninot",41.386225,2.153286,,0,,0
2.3450,3450,"Comte d'Urgell - Hospital Clínic",41.388828,2.149828,,0,,0
2.3451,3451,"Ciutat de Granada - Diagonal",41.403847,2.190793,,0,,0
2.3452,3452,"Pg  Sant Gervasi - Balmes",41.409935,2.136141,,0,,0
2.3453,3453,"Av Tibidabo - La Rotonda",41.410966,2.136588,,0,,0
2.3454,3454,"Bilbao - Perú",41.407906,2.196606,,0,,0
2.3455,3455,"Av Parc Logístic - Carrer número 25",41.341433,2.127736,,0,,0
2.3456,3456,"Carrer 3 - Carrer E",41.337909,2.124259,,0,,0
2.3457,3457,"Carrer D - Carrer 3",41.334467,2.131443,,0,,0
2.3460,3460,"Castelldefels - Llerona",41.459713,2.181618,,0,,0
2.3461,3461,"Rbla Marina - Travessia Industrial",41.353611,2.106479,,0,,0
2.3462,3462,"Rambla Marina - Cobalt",41.357725,2.103348,,0,,0
2.3463,3463,"Enric Prat de la Riba - Rambla Marina",41.360044,2.102662,,0,,0
2.3464,3464,"Av. Ferreria - Física",41.485813,2.174026,,0,,0
2.3465,3465,"Miquel Reverter - Verge dels Dolors",41.385233,2.073807,,0,,0
2.3468,3468,"Marroc - Bilbao",41.406936,2.198593,,0,,0
2.3469,3469,"Tànger - Llacuna",41.40382,2.194464,,0,,0
2.3470,3470,"Pla de Palau - Metro Barceloneta",41.381826,2.184658,,0,,0
2.3471,3471,"Ctra de Vallvidrera - Camí de l'Observatori",41.41973,2.119685,,0,,0
2.3473,3473,"Metro Collblanc",41.375702,2.11851,,0,,0
2.3474,3474,"Av Tibidabo - Pg Sant Gervasi",41.410533,2.136696,,0,,0
2.3475,3475,"Marià Lavèrnia",41.419488,2.163753,,0,,0
2.3476,3476,"Pg Vall d'Hebron - IES Narcís Monturiol",41.432067,2.145401,,0,,0
2.3477,3477,"Pg Taulat-Pl de Llevant",41.4097,2.218056,,0,,0
2.3480,3480,"Tànger - Badajoz",41.401414,2.191243,,0,,0
2.3482,3482,"Panorama - Marià Lavèrnia",41.419183,2.165007,,0,,0
2.3483,3483,"Vall d'Ordesa - Institut Josep Pla",41.431583,2.16428,,0,,0
2.3484,3484,"Vall d'Ordesa - Canfranc",41.431044,2.166523,,0,,0
2.3485,3485,"Lleida - Coronel Sanfeliu",41.322646,2.096573,,0,,0
2.3486,3486,"Lleida - Caldetes",41.323455,2.09858,,0,,0
2.3487,3487,"Lleida - Ctra de la Bunyola",41.323592,2.098632,,0,,0
2.3488,3488,"Ctra La Marina - Pau Casals",41.329402,2.098556,,0,,0
2.3489,3489,"Lo Gaiter del Llobregat - Av Pare A. de Palma",41.331098,2.102083,,0,,0
2.3490,3490,"Les Moreres - Av Josep Anselm Clavé",41.333002,2.100186,,0,,0
2.3491,3491,"Les Moreres - Av Josep Anselm Clavé",41.332881,2.100183,,0,,0
2.3492,3492,"Av Remolar - Av Pompeu Fabra",41.32228,2.089114,,0,,0
2.3493,3493,"Av Remolar - Bruguers",41.322459,2.088742,,0,,0
2.3498,3498,"Rbla Prim - Jaume Brossa",41.427609,2.198183,,0,,0
2.3499,3499,"Via Trajana - Santander",41.428502,2.200419,,0,,0
2.3500,3500,"Av Sivatte -  Vallbona",41.46626,2.178826,,0,,0
2.3502,3502,"Av Remolar - Pirineus",41.320496,2.089898,,0,,0
2.3503,3503,"Lleida - Av Remolar",41.320535,2.090638,,0,,0
2.3504,3504,"Via Trajana - Jaume Brossa",41.428703,2.20243,,0,,0
2.3505,3505,"Via Trajana - Rbla Prim",41.428577,2.198638,,0,,0
2.3506,3506,"Cantàbria - Rbla Prim",41.425073,2.199861,,0,,0
2.3507,3507,"Cantàbria - Rbla Prim",41.424938,2.200059,,0,,0
2.3508,3508,"Santander - Pont del Treball Digne",41.42279,2.196723,,0,,0
2.3509,3509,"Marina-Llull",41.39271,2.189837,,0,,0
2.3510,3510,"Marina-Pujades",41.392653,2.189535,,0,,0
2.3511,3511,"Miret i Sans - Sor Eulàlia d'Anzizu",41.390334,2.112419,,0,,0
2.3512,3512,"Cavallers - Gran Capità",41.388824,2.109287,,0,,0
2.3513,3513,"Cavallers - Carreras",41.387605,2.108058,,0,,0
2.3514,3514,"Artesania - Via Favència",41.443094,2.171991,,0,,0
2.3515,3515,"Rda. Guineueta Vella-Antonio Machado",41.443952,2.169747,,0,,0
2.3516,3516,"Tarragona - Consell de Cent",41.376434,2.147776,,0,,0
2.3517,3517,"Cisell-Mare de Déu de Port",41.354931,2.145385,,0,,0
2.3518,3518,"Mare de Déu de Port-L'Anoia",41.364055,2.139447,,0,,0
2.3519,3519,"Mineria-Font Florida",41.36636,2.139877,,0,,0
2.3520,3520,"Pl. Sants",41.375708,2.136152,,0,,0
2.3521,3521,"Comtes de Bell-lloc-Berlín",41.382316,2.13617,,0,,0
2.3522,3522,"Can Bruixa-Comtes de Bell-lloc",41.384596,2.134156,,0,,0
2.3524,3524,"Joan Güell-Travessera de les Corts",41.383664,2.131024,,0,,0
2.3525,3525,"Joan Güell - Av. Madrid",41.380299,2.132537,,0,,0
2.3526,3526,"Joan Güell-Cerdanyola",41.377256,2.133881,,0,,0
2.3527,3527,"Química-Gran Via",41.365779,2.1383,,0,,0
2.3528,3528,"Mare de Déu de Port-Foc",41.358306,2.143337,,0,,0
2.3530,3530,"Cantàbria-Rambla Guipúscoa",41.419747,2.201159,,0,,0
2.3531,3531,"Selva de Mar-Rambla Guipúscoa",41.416898,2.1986,,0,,0
2.3532,3532,"Selva de Mar-Pg Taulat",41.405383,2.213507,,0,,0
2.3533,3533,"Av del Litoral-Platja de Llevant",41.403978,2.216343,,0,,0
2.3534,3534,"Josep Pla-Pg Garcia Fària",41.407401,2.21785,,0,,0
2.3535,3535,"Josep Pla-Av Diagonal",41.409288,2.215358,,0,,0
2.3536,3536,"Lope de Vega-Garcia Fària",41.400577,2.208815,,0,,0
2.3537,3537,"Provença-Villarroel",41.388437,2.153025,,0,,0
2.3538,3538,"Rda Guinardó-Sant Quintí",41.41585,2.173865,,0,,0
2.3539,3539,"Rda Guinardó-Vinyals",41.418438,2.17629,,0,,0
2.3540,3540,"Rda Guinardó-Segle XX",41.422467,2.177208,,0,,0
2.3541,3541,"Rda Guinardó-Vinyals",41.418418,2.176108,,0,,0
2.3542,3542,"Rda Guinardó-Telègraf",41.416604,2.174213,,0,,0
2.3543,3543,"Rda Guinardó-Cartagena",41.414243,2.171036,,0,,0
2.3544,3544,"Av Pearson - Av d'Esplugues",41.39406,2.111971,,0,,0
2.3545,3545,"Av Pearson - Pl Joan d'Alòs",41.393773,2.110352,,0,,0
2.3546,3546,"Pg. Zona Franca-Sant Eloi",41.355302,2.142772,,0,,0
2.3547,3547,"Cristóbal de Moura-Perpinyà",41.417994,2.21556,,0,,0
2.3548,3548,"Cristóbal de Moura-Rambla Prim",41.415668,2.212453,,0,,0
2.3549,3549,"Cristóbal de Moura-Josep Pla",41.413805,2.209948,,0,,0
2.3551,3551,"Marroc-Bac de Roda",41.409,2.201321,,0,,0
2.3552,3552,"Tànger-Av Meridiana",41.398583,2.187428,,0,,0
2.3553,3553,"Cristóbal de Moura-Espronceda",41.407991,2.202433,,0,,0
2.3554,3554,"Cristóbal de Moura-Josep Pla",41.413178,2.209377,,0,,0
2.3555,3555,"Cristóbal de Moura - Rambla Prim",41.415683,2.212694,,0,,0
2.3556,3556,"Cristóbal de Moura-Perpinyà",41.417911,2.215801,,0,,0
2.3557,3557,"Travessera de Gràcia-Muntaner",41.395649,2.148727,,0,,0
2.3558,3558,"Travessera de Gràcia - Calvet",41.39348,2.145435,,0,,0
2.3559,3559,"Mas Casanovas-Hospital de Sant Pau",41.414919,2.173207,,0,,0
2.3561,3561,"Manso-Calàbria",41.376355,2.160074,,0,,0
2.3562,3562,"Pere IV-Selva de Mar",41.411317,2.203926,,0,,0
2.3563,3563,"Pere IV-Llacuna",41.402099,2.197206,,0,,0
2.3564,3564,"Pere IV - Bilbao",41.405266,2.199816,,0,,0
2.3565,3565,"Pere IV-Provençals",41.41117,2.204043,,0,,0
2.3566,3566,"Pl Lesseps",41.406215,2.149082,,0,,0
2.3567,3567,"Manso-Viladomat",41.376531,2.160305,,0,,0
2.3568,3568,"Viladomat - Sepúlveda",41.379059,2.158033,,0,,0
2.3569,3569,"Estació de Sants-Direcció Hospital Clínic",41.379566,2.141334,,0,,0
2.3570,3570,"Provença-Casanova",41.389572,2.154554,,0,,0
2.3571,3571,"Pujades-Joan d'Àustria",41.393679,2.189841,,0,,0
2.3572,3572,"Llull-Joan d'Àustria",41.392838,2.191119,,0,,0
2.3573,3573,"Rambla Prim-Santander",41.426347,2.199656,,0,,0
2.3574,3574,"Viladomat - Marquès de Campo Sagrado",41.375491,2.162752,,0,,0
2.3575,3575,"Entença - Av Mistral",41.376667,2.15461,,0,,0
2.3576,3576,"Entença - València",41.381839,2.147769,,0,,0
2.3577,3577,"Entença -Roselló",41.384259,2.144559,,0,,0
2.3578,3578,"Entença - Av Josep Tarradellas",41.386162,2.142084,,0,,0
2.3579,3579,"Entença - Déu i Mata",41.390326,2.137758,,0,,0
2.3580,3580,"Doctor Fleming - Santa Fe de Nou Mèxic",41.394343,2.135004,,0,,0
2.3581,3581,"Calatrava - Vergós",41.399539,2.130293,,0,,0
2.3582,3582,"Iradier - Pg. Bonanova",41.403209,2.126687,,0,,0
2.3583,3583,"Anglí - Pl. Benet XV",41.405451,2.120661,,0,,0
2.3584,3584,"Anglí - Margenat",41.403392,2.122679,,0,,0
2.3585,3585,"Anglí - Pg. Bonanova",41.401338,2.124694,,0,,0
2.3586,3586,"Anglí - Via Augusta",41.398121,2.127842,,0,,0
2.3587,3587,"Dr Fleming - Ronda General Mitre",41.3948,2.134603,,0,,0
2.3588,3588,"Dr Fleming - Bori i Fontestà",41.391817,2.136052,,0,,0
2.3589,3589,"Manso-Comte Borrell",41.377554,2.161663,,0,,0
2.3590,3590,"Viladomat - Còrsega",41.386972,2.147531,,0,,0
2.3591,3591,"Viladomat - Aragó",41.38272,2.15319,,0,,0
2.3592,3592,"Viladomat - Diputació",41.380657,2.155911,,0,,0
2.3594,3594,"Sant Ramon de Penyafort - Ronda Litoral",41.413204,2.221761,,0,,0
2.3595,3595,"Sant Ramon de Penyafort - Av Eduard Maristany",41.413838,2.220957,,0,,0
2.3596,3596,"Sant Ramon de Penyafort - Ponent",41.418119,2.217785,,0,,0
2.3597,3597,"Alfons el Magnànim - Jaume Huguet",41.418046,2.212575,,0,,0
2.3598,3598,"Alfons el Magnànim - Jaume Huguet",41.417858,2.212492,,0,,0
2.3599,3599,"Carrer número 3 - Carrer A",41.332295,2.139921,,0,,0
2.3600,3600,"Carrer Z - Carrer número 3",41.330516,2.141744,,0,,0
2.3604,3604,"Vallcivera-Av Rasos de Peguera",41.459576,2.175985,,0,,0
2.3655,3655,"Irlanda - Mossèn Jacint Verdaguer",41.447658,2.214966,,0,,0
2.3673,3673,"Av dels Alps - Tanatori",41.354932,2.077792,,0,,0
2.3676,3676,"Santander - Cànem",41.430583,2.20447,,0,,0
2.3677,3677,"Via Trajana - Santander",41.4283,2.203405,,0,,0
2.3678,3678,"Via Trajana - Binèfar",41.426913,2.206319,,0,,0
2.3679,3679,"Via Trajana - Rambla Guipúscoa",41.425677,2.209066,,0,,0
2.3680,3680,"Ctra. de Mataró - Via Trajana",41.423585,2.211304,,0,,0
2.3681,3681,"Ctra de Mataró - Argentina",41.423535,2.211399,,0,,0
2.3682,3682,"Via Trajana - Rambla Guipúscoa",41.425813,2.208918,,0,,0
2.3683,3683,"Via Trajana - Binèfar",41.426968,2.206404,,0,,0
2.3684,3684,"Via Trajana - Santander",41.428159,2.203898,,0,,0
2.3685,3685,"Santander - Ferrocarril",41.431284,2.205338,,0,,0
2.3686,3686,"Rbla. Marina - CAP Pura Fernández",41.356399,2.104198,,0,,0
2.3687,3687,"Rbla Marina - Ctra del Mig Líneas",41.353917,2.105449,,0,,0
2.3688,3688,"Extremadura - Guipúscoa",41.424765,2.209254,,0,,0
2.3689,3689,"Extremadura - Guipúscoa",41.425174,2.209432,,0,,0
2.3690,3690,"Ronda Sant Pau - Folch i Torres",41.376486,2.16616,,0,,0
2.3691,3691,"Mecànica - Progrés",41.484961,2.171564,,0,,0
2.3692,3692,"Química - Progrés",41.483847,2.176316,,0,,0
2.3693,3693,"Av. Ferreria - Progrés",41.48504,2.177909,,0,,0
2.3694,3694,"Vapor - Física",41.487325,2.173624,,0,,0
2.3695,3695,"Av. Ferreria - Mecànica",41.48605,2.171609,,0,,0
2.3696,3696,"Pau Claris - Casp",41.390153,2.170427,,0,,0
2.3697,3697,"Pg Sant Joan - Sant Antoni Maria Claret",41.403301,2.164787,,0,,0
2.3698,3698,"Lisboa - Santa Joana d'Arc",41.429626,2.158653,,0,,0
2.3719,3719,"Iradier - Terré",41.407101,2.122888,,0,,0
2.8136,8136,"Av Meridiana, 125 ",41.409723,2.186617,,0,,0
2.8188,8188,"Miquel dels Sants Oliver, 5",41.414391,2.160327,,0,,0
2.8218,8218,"Cardenal Tedeschini, 56",41.426268,2.181414,,0,,0
2.8640,8640,"General Vives, 2",41.40244,2.115749,,0,,0
2.8746,8746,"Arbeca, 5",41.437019,2.208527,,0,,0
2.9101,9101,"Mallorca, 377",41.402094,2.173458,,0,,0
2.9256,9256,"Gran Via Corts Catalanes, 849",41.406165,2.190232,,0,,0
2.9323,9323,"Glòries Catalanes, 8-15",41.403667,2.186435,,0,,0
2.9367,9367,"Botànica, 61",41.351252,2.129495,,0,,0
2.9385,9385,"Vall d'Hebron, 107-117",41.425109,2.142087,,0,,0
2.9390,9390,"Pl Glòries Catalanes, s/n",41.403043,2.187263,,0,,0
2.9391,9391,"Pl Glòries Catalanes, s/n",41.402489,2.187474,,0,,0
2.9398,9398,"Gran Via, 751",41.400394,2.182688,,0,,0
2.9438,9438,"Castillejos, 201",41.403122,2.182649,,0,,0
2.9517,9517,"Eduard Maristany, 1",41.412108,2.219896,,0,,0
2.9556,9556,"Remolar, S/N",41.317017,2.09221,,0,,0
2.9564,9564,"Rambla Prat, 19",41.401295,2.151771,,0,,0
2.9571,9571,"Cartagena-Mallorca",41.407331,2.179492,,0,,0
2.9572,9572,"Laureà Miró, s/n",41.375481,2.096179,,0,,0
2.9575,9575,"Av. Barcelona, 67",41.368215,2.068244,,0,,0
2.9577,9577,"Almansa, 29",41.442425,2.175567,,0,,0
2.9586,9586,"Baltasar de España, 2b",41.365568,2.055807,,0,,0
2.9589,9589,"Pep Ventura, s/n",41.49366,2.180403,,0,,0
2.9590,9590,"Ctra. Ripollet Bv114, s/n",41.49301,2.180907,,0,,0
2.9591,9591,"Aragó, 447-451",41.4024,2.178391,,0,,0
2.9592,9592,"Av. Diagonal, 338",41.400319,2.17375,,0,,0
2.9594,9594,"Rbla. Prim, 101",41.417447,2.210726,,0,,0
2.9596,9596,"Sant Antoni Abat (c. Sud), s/n",41.357729,2.153612,,0,,0
2.9597,9597,"Cardedeu, 26",41.416826,2.14423,,0,,0
2.9598,9598,"Pl. Olerdola, 10",41.419222,2.143434,,0,,0
2.9599,9599,"Massens, 55",41.408356,2.156487,,0,,0
2.9602,9602,"Número 4, 126",41.334797,2.118463,,0,,0
2.9605,9605,"Pg Torras i Bages - Palomar",41.441264,2.190968,,0,,0
2.9607,9607,"Sant Salvador, 39",41.407162,2.153711,,0,,0
2.9608,9608,"Av. Diagonal, 354",41.399843,2.172394,,0,,0
